region,district,ward,latitude,longitude,agent_name,standalone_agent,other_activities,trading_hours,provider_selcom,selcom_deposits_per_week,selcom_withdrawls_per_week,selcom_num_tills,selcom_training,selcom_training_type,selcom_tariff_guide,selcom_guidance_service_use,provider_maxmalipo,maxmalipo_deposits_per_week,maxmalipo_withdrawls_per_week,maxmalipo_num_tills,maxmalipo_training,maxmalipo_training_type,maxmalipo_tariff_guide,maxmalipo_guidance_service_use,provider_buttonpay,buttonpay_deposits_per_week,buttonpay_withdrawls_per_week,buttonpay_num_tills,buttonpay_training,buttonpay_training_type,buttonpay_tariff_guide,buttonpay_guidance_service_use,bank_local_services,ShoppingCentres_local_services,GeneralDealer_local_services,Caf__local_services,Salon_local_services,Pharmacy_local_services,Bar_local_services,Trader_local_services,ElectronicShop_local_services,BureaudeExchange_local_services,Hotel_local_services,CellularShop_local_services,GroceryStore_local_services,Restaurant_local_services,Other_local_services,Other_local_services_detail,services_utility_payments,services_tax_payments,services_MMT_transfer,services_airtime_purchase,Other than those listed above are there any other services provided?,Please indicate,branding_but__service,Please select,branding_but_no_service_MaxMalipo,branding_but_no_service_Selcom,branding_but_no_service_ButtonPay,branding_but_no_service_other,branding_but_no_service_other_detail
Mwanza,Magu,Nyanguge,-2.36921,33.57654,Ahad Techknowledge,Conduct other business,Accessories,12 hours,Yes,5,5,1,Yes,Training from other rep,Yes,Yes,,,,,,,,,,,,,,,,,,,,Yes,Yes,,,Yes,,,,,,,,,Yes,Yes,,Yes,,,,,,,,,
Mwanza,Ilemela,Nyakato,-2.53201,32.9478,Dady Mpesa Shop,Conduct other business,Accessories,12 hours,,,,,,,,,Yes,10,13,1,Yes,Training from other rep,Yes,Yes,,,,,,,,,,,,Yes,Yes,,Yes,Yes,,,,Yes,,,,,,Yes,Yes,Yes,,,,,,,,,
Dar es Salaam,Ilala,Segerea,-6.84188,39.21102,A City Shop,Stand Alone Agent,,12 hours,Yes,0,0,1,Yes,Formal classroom training,Yes,Yes,,,,,,,,,,,,,,,,,,,,Yes,,Yes,,,,,,,,,,,Yes,,,Yes,,,,,,,,,
Dar es Salaam,Kinondoni,Kijitonyama,-6.77949,39.24092,France Corner,Conduct other business,Accessories,10 hours,,,,,,,,,Yes,12,8,1,Yes,Training from other rep,Yes,Yes,,,,,,,,,,Yes,Yes,,,,,,,,,,,,,,,,,Yes,,,,,,,,,
Dar es Salaam,Temeke,Kigamboni,-6.82792,39.31021,A One Fashion,Stand Alone Agent,,10 hours,,,,,,,,,Yes,0,0,0,Yes,Training from other rep,Yes,Yes,,,,,,,,,,,,,,,,,,,,,Yes,,,,Yes,Yes,Yes,Yes,,,,,,,,,
Dar es Salaam,Temeke,Mtoni,-6.87032,39.279,Andyjane Kukufeed And Chicks,Conduct other business,Agrovet,12 hours,,,,,,,,,Yes,0,0,1,Yes,Training from other rep,No,Yes,,,,,,,,,,,,Yes,Yes,Yes,Yes,,,,,,Yes,Yes,,,Yes,Yes,,Yes,,,,,,,,,
Dar es Salaam,Ilala,Pugu,-6.89513,39.13675,Asha Shop,Conduct other business,Agrovet,12 hours,,,,,,,,,Yes,0,0,1,Yes,Training from other rep,No,Yes,,,,,,,,,,,,Yes,Yes,,,,,,,,Yes,Yes,,,Yes,Yes,,Yes,,,,,,,,,
Dar es Salaam,Kinondoni,Manzese,-6.80095,39.23876,A.D Shop,Stand Alone Agent,,12 hours,,,,,,,,,,,,,,,,,,,,,,,,,,,,,,,,,,,,,,,Yes,Duka,Yes,,Yes,Yes,,,,,,,,,
Dar es Salaam,Ilala,Ukonga,-6.88001,39.16119,Christina,Conduct other business,Agrovet,12 hours,Yes,0,0,1,Yes,Training from other rep,Yes,Yes,,,,,,,,,,,,,,,,,,,,,,,,Yes,,,,,,,Yes,Carpenter,Yes,Yes,,Yes,,,,,,,,,
Dar es Salaam,Ilala,Kitunda,-6.90564,39.22088,Kairuki Kafkeria,Conduct other business,Agrovet,12 hours,,,,,,,,,Yes,0,0,1,Yes,Training from other rep,No,Yes,,,,,,,,,,,,,Yes,,,,,,,,,,Yes,Duka,Yes,,,Yes,,,,,,,,,
Arusha,Arusha,Sekei,-3.36276,36.70763,Maguo Agrovate,Conduct other business,Agrovet,12 hours,,,,,,,,,Yes,20,0,0,Yes,Training from other rep,No,Yes,,,,,,,,,,,Yes,,,,,,,,,,,,,,Yes,Yes,,Yes,,,,,,,,,
Pwani,Bagamoyo,Magomeni,-6.44535,38.90168,R And B Store,Conduct other business,Agrovet,12 hours,Yes,0,0,1,Yes,Training from other rep,No,Yes,,,,,,,,,,,,,,,,,,,,Yes,,,,,,,,,Yes,Yes,,,Yes,Yes,,Yes,,,,,,,,,
Dar es Salaam,Kinondoni,Mabibo,-6.80679,39.22967,A.M Shop,Stand Alone Agent,,12 hours,,,,,,,,,,,,,,,,,Yes,0,0,0,Yes,Formal classroom training,Yes,Yes,,,,,,,,,,,,Yes,,,,,Yes,,Yes,Yes,,,,,,,,,
Tabora,Nzega,Nzega Mjini,-4.21905,33.18596,Rahma Shop,Conduct other business,Agrovet,12 hours,,,,,,,,,Yes,0,0,1,Yes,Training from other rep,No,Yes,,,,,,,,,,,,,,,,,,,,,Yes,,,,,Yes,Yes,Yes,,,,,,,,,
Dar es Salaam,Ilala,Kitunda,-6.89966,39.16851,Abdu Midundio,Conduct other business,Airtime sales SIM Registration.,12 hours,,,,,,,,,Yes,0,0,1,Yes,Training from other rep,No,Yes,,,,,,,,,,,,,,,,,,,,,,Yes,,,Yes,,,Yes,,,,,,,,,
Dar es Salaam,Temeke,Tandika,-6.87109,39.25593,Adam,Conduct other business,Airtime sales SIM Registration.,12 hours,Yes,0,0,1,Yes,Training from other rep,No,Yes,,,,,,,,,,,,,,,,,,,,,,,Yes,,,,,,,,,,Yes,,,Yes,,,,,,,,,
Dar es Salaam,Ilala,Tabata,-6.81563,39.21806,Abas,Stand Alone Agent,,12 hours,Yes,0,0,1,Yes,Formal classroom training,Yes,Yes,,,,,,,,,,,,,,,,,,,,,,,,,,,,,Yes,,,,Yes,,,Yes,,,,,,,,,
Lindi,Kilwa,Masoko,-8.92578,39.51247,Adam Shamkoma,Conduct other business,Airtime sales SIM Registration.,12 hours,Yes,0,0,0,Yes,Training from other rep,No,Yes,,,,,,,,,,,,,,,,,,,,,,,,,,,,,Yes,,Yes,Market,Yes,,,Yes,,,,,,,,,
Dar es Salaam,Temeke,Keko,-6.83969,39.2737,Ally Keko Shop,Conduct other business,Airtime sales SIM Registration.,12 hours,Yes,0,0,1,Yes,Training from other rep,No,Yes,,,,,,,,,,,,,,,,,,,,Yes,Yes,Yes,Yes,,,,,,Yes,Yes,,,Yes,,,Yes,,,,,,,,,
Lindi,Nachingwea,Nambambo,-10.36751,38.76304,Charles Nyambina,Conduct other business,Airtime sales SIM Registration.,12 hours,,,,,,,,,Yes,0,0,2,Yes,Training from other rep,Yes,Yes,,,,,,,,,,,,,,,,,,,,,,,Yes,Petrol Station,Yes,,,Yes,,,,,,,,,
Dar es Salaam,Temeke,Tandika,-6.8723,39.2599,Christa,Conduct other business,Airtime sales SIM Registration.,12 hours,,,,,,,,,Yes,0,0,1,Yes,Training from other rep,No,Yes,,,,,,,,,,,,,,,,,,,,,,Yes,Yes,Duka,Yes,,,Yes,,,,,,,,,
Dar es Salaam,Kinondoni,Kijitonyama,-6.7726,39.23503,Abby Shop,Stand Alone Agent,,12 hours,,,,,,,,,Yes,0,0,1,Yes,Formal classroom training,No,Yes,,,,,,,,,,,,Yes,,,,,,,,,,,,,,Yes,,Yes,,,,,,,,,
Dar es Salaam,Ilala,Segerea,-6.82567,39.20099,Abc,Stand Alone Agent,,12 hours,,,,,,,,,Yes,0,0,1,Yes,Training from other rep,Yes,Yes,,,,,,,,,,,,,,,Yes,,,,,,,,,,Yes,,,Yes,,,,,,,,,
Dar es Salaam,Ilala,Ukonga,-6.86511,39.20204,Elson Manyoni,Conduct other business,Airtime sales SIM Registration.,12 hours,Yes,0,0,1,Yes,Training from other rep,No,Yes,,,,,,,,,,,,,,,,,,,,,,,Yes,,,,,,,Yes,,,Yes,,,Yes,,,,,,,,,
Dar es Salaam,Kinondoni,Magomeni,-6.81039,39.24369,Abdala,Stand Alone Agent,,12 hours,,,,,,,,,Yes,0,0,1,No,,No,No,,,,,,,,,,,,,,,,,,,,,,,,,Yes,Yes,Yes,Yes,,,Yes,,Yes,No,No,No,
Lindi,Lindi Urban,Ndoro,-9.99669,39.71221,Hamza Kasongo,Conduct other business,Airtime sales SIM Registration.,12 hours,,,,,,,,,,,,,,,,,Yes,0,0,1,Yes,Training from other rep,No,Yes,,,Yes,,Yes,,,,,,,,,,Yes,Stationary Shop,Yes,,,Yes,,,,,,,,,
Dar es Salaam,Temeke,Kigamboni,-6.82291,39.30264,Ibrahim Musa,Conduct other business,Airtime sales SIM Registration.,12 hours,,,,,,,,,Yes,0,0,1,Yes,Formal classroom training,No,Yes,,,,,,,,,,,,,,Yes,,,,,,,,Yes,Yes,Duka,Yes,,,Yes,,,,,,,,,
Dar es Salaam,Kinondoni,Mwananyamala,-6.78188,39.25012,Kasenda,Conduct other business,Airtime sales SIM Registration.,12 hours,Yes,8,8,1,Yes,Formal classroom training,Yes,Yes,,,,,,,,,,,,,,,,,,,,,,,,Yes,,,,Yes,,,,,,Yes,,Yes,,,,,,,,,
Dar es Salaam,Temeke,Kigamboni,-6.82191,39.30218,Abdala Swai,Stand Alone Agent,,12 hours,Yes,0,0,1,Yes,Formal classroom training,No,Yes,,,,,,,,,,,,,,,,,,,,,,,Yes,Yes,,,,,,Yes,,,Yes,,,Yes,,,,,,,,,
Dar es Salaam,Kinondoni,Tandale,-6.79299,39.24606,Abdalah,Stand Alone Agent,,12 hours,,,,,,,,,Yes,20,20,1,Yes,Formal classroom training,Yes,Yes,,,,,,,,,,,,,,,,,,,,,,,,,,,,Yes,,,,,,,,,
Dar es Salaam,Temeke,Mbagala,-6.92212,39.23701,Mama Yassin Cafe,Conduct other business,Airtime sales SIM Registration.,12 hours,Yes,0,0,1,Yes,Formal classroom training,No,Yes,,,,,,,,,,,,,,,,,,,,,,,,,,,,,,,Yes,Hardware Shop,Yes,,,Yes,,,,,,,,,
Tabora,Tabora Urban,Gongoni,-5.01731,32.81052,Abdalah Bakari,Stand Alone Agent,,12 hours,,,,,,,,,,,,,,,,,Yes,0,0,1,Yes,Training from other rep,Yes,Yes,,,,,Yes,,,,,,,,,,,,Yes,,,Yes,,,,,,,,,
Dar es Salaam,Kinondoni,Magomeni,-6.80901,39.2595,Abdalah Hamid,Stand Alone Agent,,12 hours,Yes,30,30,1,Yes,Formal classroom training,No,Yes,,,,,,,,,,,,,,,,,,,,,,,,,,,,,,Yes,,,,Yes,Yes,Yes,,,,,,,,,
Singida,Singida Urban,Ipembe,-4.81796,34.75325,Abdalah Juma,Stand Alone Agent,,12 hours,,,,,,,,,,,,,,,,,Yes,0,0,0,Yes,Training from other rep,Yes,Yes,,,,,Yes,,,,,,,,,,Yes,TRA,Yes,Yes,,,,,,,,,,,
Dar es Salaam,Kinondoni,Kibamba,-6.7882,39.07823,Abdalah Kasimu,Stand Alone Agent,,12 hours,,,,,,,,,Yes,20,20,1,No,,No,Yes,,,,,,,,,,,,,,,,,,,,,,Yes,,,,,Yes,Yes,,,,,,,,,
Dar es Salaam,Temeke,Keko,-6.83782,39.27817,Abdalah Kidogori,Stand Alone Agent,,12 hours,,,,,,,,,Yes,0,0,1,Yes,Formal classroom training,No,No,,,,,,,,,,,,,,Yes,,,,,,,,,Yes,Duka,Yes,,,Yes,,,,,,,,,
Dar es Salaam,Kinondoni,Mbezi,-6.79868,39.10775,Abdalah Michael,Stand Alone Agent,,12 hours,Yes,5,5,1,Yes,Training from other rep,Yes,Yes,,,,,,,,,,,,,,,,,,,,Yes,Yes,,,,,,,,,,,,,Yes,,Yes,,,,,,,,,
Dar es Salaam,Kinondoni,Magomeni,-6.81119,39.2619,Abdalah Mpalamba,Stand Alone Agent,,12 hours,Yes,5,10,1,Yes,Training from other rep,No,Yes,,,,,,,,,,,,,,,,,,,,,Yes,,,,Yes,,,,,,,,,Yes,,Yes,,,,,,,,,
Dar es Salaam,Ilala,Kivukoni,-6.81852,39.29953,Abdalah Omary Shop,Stand Alone Agent,,12 hours,,,,,,,,,Yes,0,35,1,Yes,Formal classroom training,No,Yes,,,,,,,,,,,,,,,,Yes,,,,,,,Yes,Market,Yes,,,Yes,,,,,,,,,
Dar es Salaam,Temeke,Mbagala,-6.91461,39.27091,Abdalah Sadiki,Stand Alone Agent,,12 hours,,,,,,,,,Yes,0,0,1,Yes,Training from other rep,No,Yes,,,,,,,,,,,,Yes,Yes,Yes,Yes,Yes,Yes,,,,,,Yes,Furniture sales,Yes,,,Yes,,,,,,,,,
Dar es Salaam,Temeke,Kigamboni,-6.83625,39.32123,Abdalah Said Bakari Shop,Stand Alone Agent,,12 hours,Yes,0,20,1,Yes,Formal classroom training,No,Yes,,,,,,,,,,,,,,,,,,,,,,,,,,,,,,,Yes,Mobile Money Agent,Yes,,,Yes,,,,,,,,,
Dar es Salaam,Kinondoni,Kigogo,-6.82015,39.23604,Abdalah Shop,Stand Alone Agent,,12 hours,,,,,,,,,,,,,,,,,Yes,25,25,1,No,,No,Yes,,,,,Yes,Yes,,,,,,,,,,,,,Yes,Yes,,,,,,,,,
Lindi,Lindi Urban,Ndoro,-9.99711,39.71097,Merseytel Company,Conduct other business,Airtime sales SIM Registration.,12 hours,,,,,,,,,,,,,,,,,Yes,0,0,1,Yes,Training from other rep,No,Yes,Yes,,,,Yes,,,,,,,,,,Yes,Duka,Yes,,,Yes,,,,,,,,,
Dar es Salaam,Kinondoni,Magomeni,-6.81046,39.25615,Abdalah Studio,Stand Alone Agent,,12 hours,,,,,,,,,,,,,,,,,Yes,15,15,1,No,,Yes,Yes,,,,,,,,,,Yes,,Yes,,,,,,,Yes,Yes,,,,,,,,,
Dar es Salaam,Temeke,Yombo Vituka,-6.87487,39.22412,Abdallah,Stand Alone Agent,,12 hours,,,,,,,,,,,,,,,,,Yes,0,0,1,Yes,Training from other rep,No,Yes,,,,,,,,,,,,,,,Yes,Bus stand,Yes,,,Yes,,,,,,,,,
Dar es Salaam,Ilala,Kitunda,-6.9036,39.16944,Msafiri,Conduct other business,Airtime sales SIM Registration.,12 hours,Yes,0,0,1,Yes,Training from other rep,No,Yes,,,,,,,,,,,,,,,,,,,,,,,,,,,,,,Yes,,,Yes,,,Yes,,,,,,,,,
Dar es Salaam,Ilala,Kisutu,-6.82066,39.28527,Tigo Shop Jm Hall,Conduct other business,Airtime sales SIM Registration.,12 hours,,,,,,,,,Yes,0,0,0,Yes,Training from other rep,Yes,Yes,,,,,,,,,Yes,,,,,Yes,,,,Yes,,,,,,,Yes,Yes,Yes,Yes,,,,,,,,,
Dar es Salaam,Temeke,Mtoni,-6.86452,39.28281,AbdallahSaidBakari,Stand Alone Agent,,12 hours,,,,,,,,,,,,,,,,,Yes,0,0,1,Yes,Training from other rep,No,No,,,,,,,,Yes,,,,,,,Yes,Duka,Yes,,,Yes,,,,,,,,,
Dar es Salaam,Kinondoni,Kijitonyama,-6.77548,39.24441,Vodacom Shop Millenium Tower,Conduct other business,Airtime sales SIM Registration.,8 hours,,,,,,,,,Yes,0,0,1,Yes,Formal classroom training,No,Yes,,,,,,,,,Yes,Yes,,,,,,,,,,,,,,,Yes,Yes,Yes,Yes,,,,,,,,,
Dar es Salaam,Temeke,Mbagala,-6.89635,39.26171,Abdallah Ally,Stand Alone Agent,,12 hours,,,,,,,,,,,,,,,,,Yes,0,0,1,Yes,Training from other rep,No,Yes,,,,Yes,Yes,Yes,Yes,,Yes,,,,,,Yes,Butcher,Yes,,,Yes,,,,,,,,,
Dar es Salaam,Ilala,Kariakoo,-6.81452,39.27505,Abed Juma,Conduct other business,Auto Spares Shop,12 hours,Yes,0,0,1,Yes,Training from other rep,No,Yes,,,,,,,,,,,,,,,,,,,,Yes,Yes,Yes,Yes,,,,,,,,Yes,Petrol Station,Yes,,,Yes,,,,,,,,,
Dar es Salaam,Ilala,Vingunguti,-6.8446,39.22424,Abdallah Golegole,Stand Alone Agent,,12 hours,Yes,0,0,1,Yes,Training from other rep,Yes,Yes,,,,,,,,,,,,,,,,,,,,,,,,,,,,,,,Yes,Duka,Yes,Yes,,Yes,,,,,,,,,
Dar es Salaam,Temeke,Azimio,-6.87459,39.26982,Bosco John,Conduct other business,Auto Spares Shop,12 hours,Yes,0,0,1,Yes,Training from other rep,No,Yes,,,,,,,,,,,,,,,,,,,,Yes,,,,,,,,Yes,,,,,Yes,,,Yes,,,,,,,,,
Dar es Salaam,Ilala,Buguruni,-6.82884,39.25591,Burahan Ommary Mohamed,Conduct other business,Auto Spares Shop,12 hours,,,,,,,,,Yes,0,0,1,Yes,Formal classroom training,No,No,,,,,,,,,,,,,Yes,Yes,Yes,,,,Yes,,,,,,Yes,,,Yes,,,,,,,,,
Dar es Salaam,Temeke,Mbagala,-6.89447,39.26639,Abdallah Lingo,Stand Alone Agent,,12 hours,,,,,,,,,,,,,,,,,Yes,0,0,1,Yes,Training from other rep,No,Yes,,,,Yes,Yes,Yes,Yes,Yes,,,,,,,Yes,Market,Yes,,,Yes,,,,,,,,,
Kilimanjaro,Hai,Machame Magharibi,-3.36843,36.68815,C. Chao,Conduct other business,Auto Spares Shop,12 hours,,,,,,,,,Yes,30,10,1,Yes,Training from other rep,No,No,,,,,,,,,,,,,Yes,,Yes,,,,,,,,,,Yes,,Yes,Yes,,,,,,,,,
Dar es Salaam,Temeke,Yombo Vituka,-6.8938,39.21835,Abdallah Mdoe,Stand Alone Agent,,12 hours,,,,,,,,,,,,,,,,,Yes,0,0,1,No,,No,Yes,,,,,,,,,,,,,Yes,,Yes,Petrol Station,Yes,,,Yes,,,,,,,,,
Dodoma,Dodoma Urban,Majengo,-6.1789,35.74323,City Boy,Conduct other business,Auto Spares Shop,12 hours,,,,,,,,,Yes,20,0,2,Yes,Training from other rep,No,Yes,,,,,,,,,Yes,,,,,,Yes,,,,Yes,,,Yes,Yes,Dodoma Market,,Yes,Yes,Yes,,,,,,,,,
Dar es Salaam,Temeke,Mbagala,-6.9329,39.25343,Doris Katana,Conduct other business,Auto Spares Shop,12 hours,,,,,,,,,Yes,0,0,1,Yes,Formal classroom training,No,Yes,,,,,,,,,,Yes,,,,,,,,,,,,Yes,Yes,Hardware Shop,Yes,,,Yes,,,,,,,,,
Dar es Salaam,Ilala,Kitunda,-6.93977,39.17993,Dorisi Stephano,Conduct other business,Auto Spares Shop,12 hours,Yes,0,0,1,Yes,Formal classroom training,No,Yes,,,,,,,,,,,,,,,,,,,,,Yes,,,,,,,,,,,,Yes,Yes,Yes,Yes,,,,,,,,,
Dar es Salaam,Kinondoni,Kijitonyama,-6.76517,39.22923,Abdallah Shana,Stand Alone Agent,,12 hours,,,,,,,,,Yes,0,0,1,Yes,Training from other rep,No,No,,,,,,,,,,Yes,,,,,,,,,,,,Yes,Yes,Bus stand,Yes,,,Yes,,,,,,,,,
Morogoro,Kilosa,Magole,-6.37762,37.37032,Gasper Lyimo,Conduct other business,Auto Spares Shop,12 hours,,,,,,,,,Yes,0,5,0,Yes,Training from other rep,Yes,No,,,,,,,,,,,,,,,,,,,,,,,Yes,Auto Spares Shop,Yes,,Yes,Yes,,,,,,,,,
Dar es Salaam,Temeke,Mbagala,-6.9252,39.26815,Glory To God Shop,Conduct other business,Auto Spares Shop,12 hours,,,,,,,,,Yes,0,0,1,Yes,Formal classroom training,No,Yes,,,,,,,,,,,,,,Yes,Yes,,,,,,,,Yes,Petrol Station,Yes,,,Yes,,,,,,,,,
Dar es Salaam,Kinondoni,Kawe,-6.74107,39.23338,Imamba Sana,Conduct other business,Auto Spares Shop,10 hours,,,,,,,,,Yes,25,15,1,Yes,Formal classroom training,No,Yes,,,,,,,,,,,,,Yes,,,,,,,,,,,,Yes,Yes,,Yes,,,,,,,,,
Dar es Salaam,Temeke,Toangoma,-6.94883,39.28093,Japhari Kombo,Conduct other business,Auto Spares Shop,12 hours,,,,,,,,,Yes,0,0,1,Yes,Training from other rep,No,Yes,,,,,,,,,,,,Yes,Yes,Yes,Yes,Yes,,,,,,,Yes,Hardware Shop,Yes,,,Yes,,,,,,,,,
Dar es Salaam,Kinondoni,Kimara,-6.80026,39.16747,Abdilah Shop,Stand Alone Agent,,12 hours,Yes,20,35,1,Yes,Training from other rep,No,Yes,,,,,,,,,,,,,,,,,,,,Yes,Yes,Yes,,,,,,,,,,,,Yes,Yes,Yes,,,,,,,,,
Dar es Salaam,Kinondoni,Manzese,-6.80214,39.22996,Abdillah Shop,Stand Alone Agent,,12 hours,Yes,0,0,0,Yes,Formal classroom training,Yes,Yes,,,,,,,,,,,,,,,,,,,,,,,,,,,,,,,Yes,Duka,Yes,,Yes,Yes,,,,,,,,,
Iringa,Iringa Urban,Ruaha,-7.79059,35.70063,Kasibila Shop,Conduct other business,Auto Spares Shop,12 hours,Yes,0,0,0,Yes,Training from other rep,Yes,No,,,,,,,,,,,,,,,,,,,,,,,,,,,,,,,Yes,Travel and Tours office,Yes,,Yes,Yes,,,,,,,,,
Dar es Salaam,Kinondoni,Mbezi,-6.72927,39.21419,Kasomba Out Parts,Conduct other business,Auto Spares Shop,10 hours,,,,,,,,,Yes,0,0,1,Yes,Formal classroom training,No,Yes,,,,,,,,,,,,,,,,,,,,,,,Yes,Duka,Yes,Yes,,Yes,,,,,,,,,
Manyara,Kiteto,Olboloti,-5.18151,36.29748,Kiberenge Motorcycle Parts,Conduct other business,Auto Spares Shop,12 hours,,,,,,,,,Yes,237,0,1,Yes,Training from other rep,No,No,,,,,,,,,,,,,,,,,,,,,,,Yes,Duka,Yes,,,Yes,,,,,,,,,
Dar es Salaam,Ilala,Chanika,-6.95429,39.10221,Abdul,Stand Alone Agent,,12 hours,,,,,,,,,Yes,0,0,1,Yes,Training from other rep,No,Yes,,,,,,,,,,,,,,,,,,,,,,Yes,,,Yes,,,Yes,,,,,,,,,
Dar es Salaam,Temeke,Mbagala,-6.91426,39.27885,Kiwemba And Son Auto Spare,Conduct other business,Auto Spares Shop,12 hours,,,,,,,,,Yes,0,0,1,Yes,Training from other rep,No,Yes,,,,,,,,,,,,Yes,Yes,Yes,Yes,,,,,,,,,,,,,,,,,,,,,,
Dar es Salaam,Ilala,Ukonga,-6.91202,39.17191,Ludo Shop,Conduct other business,Auto Spares Shop,12 hours,,,,,,,,,,,,,,,,,Yes,0,0,1,Yes,Formal classroom training,Yes,Yes,,,,,,,,,,,,,,,Yes,Butcher,Yes,,,Yes,,,,,,,,,
Arusha,Arusha,Daraja Mbili,-3.38132,36.69154,Nemayani Shop,Conduct other business,Auto Spares Shop,12 hours,,,,,,,,,Yes,0,0,1,Yes,Training from other rep,No,Yes,,,,,,,,,,,,,Yes,,Yes,,,,,,,Yes,,,Yes,,,Yes,,,,,,,,,
Dar es Salaam,Temeke,Yombo Vituka,-6.89095,39.24106,Prisca,Conduct other business,Auto Spares Shop,12 hours,Yes,0,0,1,Yes,Formal classroom training,No,Yes,,,,,,,,,,,,,,,,,,,,,,,,,,,,,,,Yes,Duka,Yes,Yes,Yes,Yes,,,,,,,,,
Mwanza,Nyamagana,Pamba,-2.52221,32.90485,Rachel Shop,Conduct other business,Auto Spares Shop,12 hours,,,,,,,,,Yes,0,20,1,Yes,Training from other rep,No,Yes,,,,,,,,,,,,,Yes,Yes,Yes,,,,,,Yes,,,,Yes,Yes,Yes,Yes,,,,,,,,,
Tabora,Tabora Urban,Mbugani,-5.01376,32.79799,Abdulahim,Stand Alone Agent,,12 hours,,,,,,,,,,,,,,,,,Yes,0,0,1,Yes,Training from other rep,No,No,,,,,,,,,,,,,,,Yes,Duka,Yes,,,Yes,,,,,,,,,
Dar es Salaam,Ilala,Buguruni,-6.82924,39.25419,Rahim Shamte Kizua,Conduct other business,Auto Spares Shop,12 hours,Yes,0,0,1,Yes,Formal classroom training,No,No,,,,,,,,,,,,,,,,,Yes,,,,,Yes,,,,,Yes,,,,,,Yes,,,Yes,,,,,,,,,
Tabora,Tabora Urban,Kanyenye,-5.0182,32.81238,Abdull,Stand Alone Agent,,12 hours,,,,,,,,,Yes,0,0,1,Yes,Training from other rep,No,No,,,,,,,,,,,,,,Yes,,,,,,,,,,,Yes,,,Yes,,,,,,,,,
Dar es Salaam,Ilala,Kiwalani,-6.86075,39.23118,Abdulmaliki Issa Ambokile,Stand Alone Agent,,12 hours,Yes,0,0,1,Yes,Training from other rep,No,Yes,,,,,,,,,,,,,,,,,,,,,,Yes,,,,,,,,,,,Yes,Yes,Yes,Yes,,,,,,,,,
Arusha,Arusha,Kati,-3.37276,36.68056,Saba Autospare,Conduct other business,Auto Spares Shop,12 hours,,,,,,,,,Yes,13,10,1,Yes,Formal classroom training,Yes,Yes,,,,,,,,,,,Yes,Yes,Yes,,Yes,,Yes,,Yes,Yes,,,,,Yes,Yes,,Yes,,,,,,,,,
Dar es Salaam,Ilala,Ilala,-6.82855,39.26582,Abdulrahaman Yahya,Stand Alone Agent,,12 hours,Yes,0,0,1,Yes,Formal classroom training,No,Yes,,,,,,,,,,,,,,,,,Yes,Yes,Yes,,,,Yes,,,,,,,,,,Yes,,,Yes,,,,,,,,,
Dar es Salaam,Temeke,Temeke,-6.86307,39.26471,Safaa Shop,Conduct other business,Auto Spares Shop,12 hours,,,,,,,,,Yes,0,0,1,Yes,Training from other rep,No,No,,,,,,,,,,,,,,,Yes,,,,,,,,,,Yes,,,Yes,,,,,,,,,
Dar es Salaam,Kinondoni,Tandale,-6.79282,39.2461,Abduly Saidy,Stand Alone Agent,,12 hours,Yes,20,20,1,Yes,Formal classroom training,No,No,,,,,,,,,,,,,,,,,,,,,,,,,Yes,,,,,,,,,,,Yes,,,,,,,,,
Dar es Salaam,Ilala,Chanika,-6.9397,39.17986,Samwel Mariba,Conduct other business,Auto Spares Shop,12 hours,Yes,0,0,1,Yes,Formal classroom training,No,No,,,,,,,,,,,,,,,,,,,,,,Yes,Yes,,,,,,,,,,Yes,,,Yes,,,,,,,,,
Dar es Salaam,Ilala,Ukonga,-6.89703,39.16703,Abed Ovio,Stand Alone Agent,,12 hours,,,,,,,,,Yes,0,0,1,Yes,Formal classroom training,No,Yes,,,,,,,,,Yes,Yes,Yes,,,,,,,,,,,,,,Yes,Yes,,Yes,,,,,,,,,
Pwani,Bagamoyo,Magomeni,-6.44607,38.90714,Sophia Auto Spare Party,Conduct other business,Auto Spares Shop,12 hours,,,,,,,,,Yes,0,0,1,Yes,Training from other rep,No,Yes,,,,,,,,,,,,Yes,Yes,,,,,,,,Yes,Yes,,,Yes,Yes,,Yes,,,,,,,,,
Dar es Salaam,Temeke,Azimio,-6.87756,39.26348,Abeid Wilson,Stand Alone Agent,,12 hours,Yes,0,0,1,Yes,Formal classroom training,No,No,,,,,,,,,,,,,,,,,,,,,,Yes,Yes,,Yes,,,,,,,,Yes,,,Yes,,,Yes,,Yes,No,No,No,
Dar es Salaam,Ilala,Ukonga,-6.87825,39.16698,Thadeos Kimario,Conduct other business,Auto Spares Shop,12 hours,Yes,0,0,1,Yes,Formal classroom training,No,Yes,,,,,,,,,,,,,,,,,,,,,,,,Yes,,,,,,,,,,,,Yes,,,,,,,,,
Tabora,Tabora Urban,Isevya,-5.00953,32.82458,Abel Shop,Stand Alone Agent,,12 hours,,,,,,,,,Yes,0,0,1,Yes,Training from other rep,No,Yes,,,,,,,,,,,,,,,,,,,,,,,Yes,Duka,,Yes,Yes,Yes,,,,,,,,,
Dar es Salaam,Kinondoni,Msasani,-6.77385,39.27041,Vimal Solanki,Conduct other business,Auto Spares Shop,10 hours,Yes,0,0,1,Yes,Training from other rep,Yes,Yes,,,,,,,,,,,,,,,,,,,,,,,,,,,,,,,Yes,Show Room,Yes,,,,,,,,,,,,
Dar es Salaam,Kinondoni,Sinza,-6.78141,39.22065,Maskasembo,Conduct other business,Baby Shop,10 hours,Yes,60,82,1,Yes,Formal classroom training,No,Yes,,,,,,,,,,,,,,,,,,,,,Yes,,Yes,,,,,,,,,,,Yes,,Yes,,,,,,,,,
Dar es Salaam,Temeke,Miburani,-6.86253,39.26415,Ablari Stationary,Stand Alone Agent,,12 hours,,,,,,,,,Yes,0,0,1,Yes,Training from other rep,No,No,,,,,,,,,Yes,,,,Yes,Yes,Yes,,,,,,,,,,Yes,Yes,,Yes,,,,,,,,,
Dar es Salaam,Ilala,Gerezani,-6.82917,39.27968,Mass Bakery,Conduct other business,Bakery,12 hours,Yes,0,20,1,Yes,Formal classroom training,No,Yes,,,,,,,,,,,,,,,,,,Yes,,,,,Yes,,,,,,,Yes,Yes,Duka,Yes,,,Yes,,,,,,,,,
Dar es Salaam,Ilala,Kivukoni,-6.81619,39.28801,Abraham Abdalah,Stand Alone Agent,,10 hours,,,,,,,,,Yes,0,0,0,Yes,Training from other rep,Yes,Yes,,,,,,,,,Yes,,,,,,,,,,,,,Yes,,,Yes,Yes,Yes,Yes,,,,,,,,,
Morogoro,Kilombero,Ifakara,-8.12819,36.68329,Abraham Japhet,Stand Alone Agent,,12 hours,,,,,,,,,Yes,0,4,0,Yes,Training from other rep,No,No,,,,,,,,,,,,,,,,,,,,,,,Yes,Duka,Yes,,Yes,Yes,,,,,,,,,
Morogoro,Morogoro Urban,Kingo,-6.82282,37.6729,Abraham Mjema,Stand Alone Agent,,12 hours,Yes,0,0,1,Yes,Training from other rep,No,No,,,,,,,,,,,,,,,,,,,,,,,,,,,,,,Yes,Yes,Railway Station,Yes,,,Yes,,,,,,,,,
Dar es Salaam,Kinondoni,Magomeni,-6.80924,39.26175,Abraham Shop,Stand Alone Agent,,12 hours,Yes,25,25,1,No,,No,Yes,,,,,,,,,,,,,,,,,,,,,,,,,,,,,,Yes,,,,Yes,Yes,Yes,,,,,,,,,
Kilimanjaro,Moshi Urban,Bondeni,-3.35915,37.33789,Abrahamu Point,Stand Alone Agent,,12 hours,,,,,,,,,Yes,0,0,0,Yes,Training from other rep,No,Yes,,,,,,,,,,,,,Yes,,,,,,,Yes,,,,,Yes,,,Yes,,,,,,,,,
Tabora,Tabora Urban,Cheyo,-5.01665,32.82089,Mukida Bakery,Conduct other business,Bakery,12 hours,,,,,,,,,Yes,0,0,1,Yes,Training from other rep,No,No,,,,,,,,,,,,,Yes,,,,,,,,,,,,Yes,,,Yes,,,,,,,,,
Dar es Salaam,Temeke,Chang'ombe,-6.83988,39.2716,Absolute Communication,Stand Alone Agent,,12 hours,Yes,0,0,1,Yes,Training from other rep,No,Yes,,,,,,,,,,,,,,,,,,,,Yes,,,Yes,,,,,,Yes,Yes,,,Yes,Yes,,Yes,,,Yes,,No,No,Yes,No,
Tabora,Tabora Urban,Chemchem,-5.02263,32.80901,Mwinyi,Conduct other business,Bakery,12 hours,,,,,,,,,Yes,0,0,1,Yes,Training from other rep,No,No,,,,,,,,,,,,,,Yes,,,,,,,,,,,Yes,,,Yes,,,,,,,,,
Tabora,Tabora Urban,Tambukareli,-5.00598,32.8103,Nshoma Shop,Conduct other business,Bakery,12 hours,,,,,,,,,,,,,,,,,Yes,0,0,1,Yes,Training from other rep,No,No,,,,,Yes,,,,,,,,,,,,Yes,,,Yes,,,,,,,,,
Mtwara,Mtwara Urban,Chikongola,-10.28454,40.17875,Abubakar Nyirabu,Stand Alone Agent,,12 hours,,,,,,,,,Yes,20,15,1,Yes,Training from other rep,Yes,Yes,,,,,,,,,Yes,,Yes,,,,,,,,,,,,,,Yes,Yes,Yes,,,,,,,,,,
Dar es Salaam,Ilala,Ukonga,-6.88049,39.17101,Abubakar Abdillah,Conduct other business,Bar,12 hours,,,,,,,,,Yes,0,0,1,Yes,Training from other rep,No,Yes,,,,,,,,,,,,,,,Yes,,,,,,,Yes,,,Yes,,,Yes,,,,,,,,,
Dar es Salaam,Kinondoni,Goba,-6.64838,39.17451,Abubakari Hassani,Stand Alone Agent,,12 hours,Yes,0,0,1,Yes,Training from other rep,Yes,Yes,,,,,,,,,,,,,,,,,,Yes,,,,,,Yes,,,,,Yes,,Yes,Duka,Yes,,Yes,Yes,,,,,,,,,
Dar es Salaam,Kinondoni,Mabibo,-6.80741,39.21975,Bao Bao Bar,Conduct other business,Bar,12 hours,Yes,0,0,0,Yes,Formal classroom training,Yes,Yes,,,,,,,,,,,,,,,,,,,,,,,Yes,,,,,,,,,,Yes,,Yes,Yes,,,,,,,,,
Dar es Salaam,Temeke,Chamazi,-6.94892,39.22856,Abubakari Sufiani,Stand Alone Agent,,12 hours,,,,,,,,,Yes,0,0,1,Yes,Training from other rep,No,No,,,,,,,,,,,,,,Yes,Yes,,,,,,,,Yes,Stationary Shop,Yes,,,Yes,,,,,,,,,
Dar es Salaam,Temeke,Yombo Vituka,-6.8943,39.23875,Baraka,Conduct other business,Bar,12 hours,Yes,0,0,1,Yes,Training from other rep,No,Yes,,,,,,,,,,,,,,,,,,,,,,,Yes,,,,,,,,Yes,Night club,Yes,,,Yes,,,,,,,,,
Tabora,Igunga,Igunga,-4.28556,33.87621,Cathy Bar,Conduct other business,Bar,12 hours,,,,,,,,,,,,,,,,,Yes,0,0,1,Yes,Training from other rep,No,No,Yes,,,,,,,,,,,,,,,,Yes,Yes,,Yes,,,,,,,,,
Dar es Salaam,Temeke,Yombo Vituka,-6.8926,39.23991,Consolata,Conduct other business,Bar,12 hours,,,,,,,,,Yes,10,15,1,Yes,Training from other rep,No,Yes,,,,,,,,,,,,,,,Yes,,,,,,,Yes,,,Yes,,,Yes,,,,,,,,,
Dar es Salaam,Kinondoni,Kimara,-6.78624,39.16653,Abuu Shop,Stand Alone Agent,,12 hours,Yes,25,20,1,Yes,Training from other rep,No,Yes,,,,,,,,,,,,,,,,,,,,,,,,,,,,,,,,,,,,Yes,,,,,,,,,
Dar es Salaam,Kinondoni,Kijitonyama,-6.76922,39.23271,Contener Bar,Conduct other business,Bar,12 hours,,,,,,,,,Yes,0,0,1,Yes,Formal classroom training,No,No,,,,,,,,,,,Yes,,,,,,,,,,,,,,,Yes,,Yes,,,,,,,,,
Kilimanjaro,Siha,Nasai,-3.35551,37.33108,Dawson Dunstan,Conduct other business,Bar,12 hours,,,,,,,,,,,,,,,,,Yes,10,6,1,Yes,Training from other rep,Yes,Yes,,,,,Yes,,,,,,,,,,,,Yes,,Yes,Yes,,,,,,,,,
Kilimanjaro,Siha,Gararagua,-3.29464,37.4964,Dollors Pub,Conduct other business,Bar,12 hours,Yes,20,6,1,Yes,Training from other rep,Yes,Yes,,,,,,,,,,,,,,,,,Yes,Yes,Yes,,,,,,,,,,,,,,,,Yes,Yes,,,,,,,,,
Tabora,Tabora Urban,Kanyenye,-5.02081,32.80661,Emma,Conduct other business,Bar,12 hours,,,,,,,,,Yes,0,0,1,Yes,Training from other rep,No,No,,,,,,,,,,,,,,Yes,,,,,,,,,,,Yes,,,Yes,,,,,,,,,
Dar es Salaam,Kinondoni,Magomeni,-6.80259,39.24318,Adam,Stand Alone Agent,,12 hours,,,,,,,,,Yes,0,0,1,Yes,Training from other rep,No,No,,,,,,,,,,,,,,,,,,,,,,,,,Yes,Yes,Yes,Yes,,,Yes,,Yes,No,No,No,
Dar es Salaam,Kinondoni,Magomeni,-6.80949,39.26076,Adam Hasani,Stand Alone Agent,,12 hours,Yes,15,15,1,Yes,Training from other rep,No,Yes,,,,,,,,,,,,,,,,,,,,Yes,Yes,Yes,,,,,,,,Yes,,,,Yes,Yes,Yes,,,,,,,,,
Dar es Salaam,Temeke,Tandika,-6.89242,39.236,Adam Juma,Stand Alone Agent,,12 hours,,,,,,,,,Yes,20,15,1,Yes,Formal classroom training,Yes,Yes,,,,,,,,,,,,,,,,,,,,,,,,,,,,Yes,,,,,,,,,
Dar es Salaam,Temeke,Mbagala,-6.90521,39.26819,Adam Masha,Stand Alone Agent,,12 hours,,,,,,,,,Yes,0,0,1,Yes,Training from other rep,No,Yes,,,,,,,,,,,,,,,,,,,,,,,Yes,Market,Yes,,,Yes,,,,,,,,,
Dar es Salaam,Temeke,Yombo Vituka,-6.86723,39.2389,Adam Msaka,Stand Alone Agent,,12 hours,,,,,,,,,Yes,0,0,1,Yes,Formal classroom training,Yes,Yes,,,,,,,,,,,,,,,,,,,,,,,,,Yes,,Yes,Yes,,,,,,,,,
Kilimanjaro,Siha,Iwaeny,-3.32838,37.27151,Highways Bar,Conduct other business,Bar,12 hours,,,,,,,,,,,,,,,,,Yes,20,13,1,Yes,Training from other rep,Yes,Yes,,,Yes,,,,Yes,,,,,,,,,,Yes,,Yes,Yes,,,,,,,,,
Dar es Salaam,Ilala,Ukonga,-6.86643,39.19228,Husein Said,Conduct other business,Bar,12 hours,Yes,0,0,1,Yes,Training from other rep,No,Yes,,,,,,,,,,,,,,,,,,,,,,,Yes,,,,,,,,,,Yes,,,Yes,,,,,,,,,
Dar es Salaam,Ilala,Tabata,-6.84124,39.15528,Juliana,Conduct other business,Bar,24 hours,,,,,,,,,Yes,0,0,1,Yes,Training from other rep,No,Yes,,,,,,,,,,,,,,,Yes,,,,,,,,,,Yes,,,Yes,,,,,,,,,
Dar es Salaam,Kinondoni,Kinondoni,-6.7877,39.26923,Adam Temba,Stand Alone Agent,,12 hours,Yes,0,0,1,Yes,Training from other rep,Yes,No,,,,,,,,,,,,,,,,,,,Yes,,,,,,,,,,,,,,Yes,,,Yes,,,,,,,,,
Kilimanjaro,Moshi Urban,Majengo,-3.34111,37.35387,Adams Shop,Stand Alone Agent,,12 hours,,,,,,,,,Yes,0,0,0,Yes,Training from other rep,Yes,Yes,,,,,,,,,,,,,Yes,,,Yes,,,,,,,,,Yes,Yes,,Yes,,,,,,,,,
Dar es Salaam,Kinondoni,Mabibo,-6.80742,39.2197,Kanuti Bar,Conduct other business,Bar,12 hours,Yes,0,0,0,Yes,Formal classroom training,Yes,Yes,,,,,,,,,,,,,,,,,,,,,,,Yes,,,,,,,,,,Yes,,Yes,Yes,,,,,,,,,
Dar es Salaam,Temeke,Mbagala,-6.91794,39.25425,Kimya Kimya Pub,Conduct other business,Bar,12 hours,Yes,0,0,0,Yes,Training from other rep,Yes,Yes,,,,,,,,,,,,,,,,,,,,,,,,,,,,,Yes,,,,Yes,Yes,Yes,Yes,,,,,,,,,
Dar es Salaam,Temeke,Miburani,-6.85537,39.27121,Kipara Shop,Conduct other business,Bar,12 hours,,,,,,,,,Yes,0,0,1,Yes,Training from other rep,Yes,No,,,,,,,,,,,,Yes,,,Yes,,,,,,,,,,Yes,Yes,,Yes,,,,,,,,,
Kilimanjaro,Hai,Siha Kati,-3.3407,37.12943,Maduka Carol,Conduct other business,Bar,10 hours,,,,,,,,,Yes,25,10,1,Yes,Training from other rep,Yes,No,,,,,,,,,,,,,Yes,,Yes,,,,,,,,,,Yes,,Yes,Yes,,,,,,,,,
Dar es Salaam,Temeke,Yombo Vituka,-6.86878,39.23899,Adija Ngoi,Stand Alone Agent,,12 hours,Yes,0,0,1,Yes,Formal classroom training,Yes,Yes,,,,,,,,,,,,,,,,,,,,,,,,,,,,,,,,,Yes,Yes,,Yes,,,,,,,,,
Singida,Singida Urban,Ipembe,-4.81696,34.75173,Adija Shaibu,Stand Alone Agent,,10 hours,,,,,,,,,,,,,,,,,Yes,0,0,0,Yes,Training from other rep,No,Yes,,,,,,,,,,,,,,,,,Yes,Yes,,Yes,,,,,,,,,
Dar es Salaam,Ilala,Buguruni,-6.83369,39.24101,Adili Sunday,Stand Alone Agent,,12 hours,,,,,,,,,Yes,0,0,1,Yes,Formal classroom training,Yes,Yes,,,,,,,,,,,,,,,,,,,,,,,Yes,Duka,Yes,Yes,,Yes,,,,,,,,,
Dar es Salaam,Temeke,Temeke,-6.86503,39.26647,Adinai Sasiam,Stand Alone Agent,,12 hours,Yes,0,0,1,Yes,Training from other rep,No,No,,,,,,,,,,,,,,,,,,,,,,Yes,Yes,,,,,Yes,,,,,Yes,,,Yes,,,,,,,,,
Kilimanjaro,Moshi Urban,Kilimanjaro,-3.35862,37.33883,Adinan Pallangyo,Stand Alone Agent,,12 hours,,,,,,,,,Yes,20,10,1,Yes,Training from other rep,No,No,,,,,,,,,,,,,Yes,,Yes,,,,,,,,,,Yes,,Yes,Yes,,,,,,,,,
Dar es Salaam,Ilala,Pugu,-6.90016,39.12469,Mage Pub,Conduct other business,Bar,12 hours,,,,,,,,,Yes,0,0,1,Yes,Training from other rep,No,Yes,,,,,,,,,,,,Yes,Yes,Yes,Yes,,,,,,Yes,Yes,,,Yes,Yes,,Yes,,,,,,,,,
Morogoro,Kilosa,Dumila,-6.38283,37.34228,Malta Tarmo,Conduct other business,Bar,24 hours,Yes,0,0,1,Yes,Formal classroom training,No,No,,,,,,,,,,,,,,,,,,,,,,,Yes,,,,,,,Yes,,,Yes,,,Yes,,,,,,,,,
Tabora,Tabora Urban,Isevya,-5.01677,32.82124,Mama Salma,Conduct other business,Bar,12 hours,,,,,,,,,Yes,0,0,1,Yes,Training from other rep,No,No,,,,,,,,,,,,Yes,,,,,,,,,,,,,Yes,Yes,,Yes,,,,,,,,,
Kilimanjaro,Moshi Urban,Majengo,-3.34307,37.35134,Adon Shop,Stand Alone Agent,,12 hours,,,,,,,,,,,,,,,,,Yes,0,0,0,Yes,Training from other rep,No,Yes,,Yes,,Yes,,,Yes,Yes,,,,,,,,,Yes,,,Yes,,,,,,,,,
Tabora,Tabora Urban,Kanyenye,-5.02097,32.80658,Masula Bar,Conduct other business,Bar,12 hours,,,,,,,,,Yes,0,0,1,Yes,Training from other rep,No,No,,,,,,,,,,,,,Yes,,,,,,,,,,,,Yes,Yes,,Yes,,,,,,,,,
Dar es Salaam,Ilala,Kariakoo,-6.81753,39.27728,Aduwakl,Stand Alone Agent,,12 hours,Yes,0,0,0,Yes,Training from other rep,Yes,Yes,,,,,,,,,,,,,,,,,,Yes,,,,,,,,,,,,,,,Yes,,,Yes,,,,,,,,,
Dar es Salaam,Kinondoni,Kinondoni,-6.79969,39.20614,Advela,Stand Alone Agent,,12 hours,Yes,0,0,1,Yes,Training from other rep,Yes,Yes,,,,,,,,,,,,,,,,,,,,,Yes,,,,,,,,,,,,Yes,,,Yes,,,,,,,,,
Dar es Salaam,Kinondoni,Ubungo,-6.79354,39.21806,Aedfa,Stand Alone Agent,,12 hours,,,,,,,,,Yes,0,0,1,Yes,Training from other rep,No,No,,,,,,,,,,,,,Yes,,,,,,,,,,,,Yes,,,Yes,,,,,,,,,
Morogoro,Kilombero,Mang'ula,-7.85453,36.89376,Maurus Maurambo,Conduct other business,Bar,12 hours,,,,,,,,,Yes,0,40,0,Yes,Training from other rep,Yes,Yes,,,,,,,,,,,,,,,Yes,,,,,,,,,,Yes,,Yes,Yes,,,,,,,,,
Dar es Salaam,Kinondoni,Mikocheni,-6.76903,39.2591,Mikochen Resort,Conduct other business,Bar,12 hours,,,,,,,,,Yes,0,0,0,Yes,Training from other rep,No,Yes,Yes,0,0,0,Yes,Formal classroom training,No,Yes,,,,,,,Yes,,,,,,,,,,Yes,,,,,,,,,,,,
Kilimanjaro,Moshi Urban,Njoro,-3.35218,37.35285,Motherland Shop,Conduct other business,Bar,12 hours,,,,,,,,,Yes,0,0,0,Yes,Training from other rep,No,Yes,,,,,,,,,,,,,Yes,,Yes,,,,,,Yes,,,,Yes,Yes,,Yes,,,,,,,,,
Dar es Salaam,Kinondoni,Kimara,-6.78902,39.18758,African,Stand Alone Agent,,12 hours,,,,,,,,,Yes,0,0,0,Yes,Formal classroom training,No,Yes,,,,,,,,,,,,,Yes,,,,,,,,,,,,Yes,,,Yes,,,,,,,,,
Dar es Salaam,Temeke,Toangoma,-6.94125,39.27766,Napawene Bar&Lodge,Conduct other business,Bar,12 hours,,,,,,,,,Yes,0,0,1,Yes,Training from other rep,Yes,Yes,,,,,,,,,,,,Yes,Yes,Yes,Yes,Yes,,,,,,,Yes,CD&DVD Library,Yes,,,Yes,,,,,,,,,
Tabora,Tabora Urban,Kanyenye,-5.02229,32.81323,Nbc Club,Conduct other business,Bar,12 hours,,,,,,,,,Yes,0,0,1,Yes,Training from other rep,No,No,,,,,,,,,,,,,,,Yes,,,,,,,,,,Yes,,,Yes,,,,,,,,,
Arusha,Arusha,Kaloleni,-3.36105,36.68725,Agape Office,Stand Alone Agent,,12 hours,,,,,,,,,,,,,,,,,Yes,15,0,0,Yes,Training from other rep,Yes,Yes,Yes,,Yes,,,,,,,,,,,,,,Yes,,Yes,Yes,,,,,,,,,
Pwani,Kibaha,Mlandizi,-6.72472,38.79859,Agaston,Stand Alone Agent,,12 hours,Yes,0,0,1,Yes,Training from other rep,No,No,,,,,,,,,,,,,,,,,,,,,,,,,,,,,,,,,Yes,Yes,Yes,Yes,,,Yes,,No,Yes,No,No,
Dar es Salaam,Kinondoni,Mburahati,-6.81589,39.23599,Agata Kalimanas,Stand Alone Agent,,12 hours,Yes,5,5,1,Yes,Training from other rep,No,Yes,,,,,,,,,,,,,,,,,,,,Yes,Yes,Yes,,,,,,,,,,,,Yes,,Yes,,,,,,,,,
Arusha,Arusha,Kimandolu,-3.37777,36.70695,New 2 Sisters Pub,Conduct other business,Bar,24 hours,,,,,,,,,Yes,54,0,1,Yes,Formal classroom training,Yes,Yes,,,,,,,,,,Yes,Yes,,,Yes,,Yes,Yes,,,,,,,,Yes,Yes,Yes,Yes,,,,,,,,,
Dar es Salaam,Kinondoni,Kunduchi,-6.63181,39.17807,Patric Yiella,Conduct other business,Bar,12 hours,,,,,,,,,Yes,0,0,1,Yes,Training from other rep,Yes,Yes,,,,,,,,,,,,,,,Yes,,,,,,,,,,Yes,,Yes,Yes,,,,,,,,,
Dar es Salaam,Ilala,Segerea,-6.83608,39.21597,Agnes,Stand Alone Agent,,12 hours,Yes,0,0,1,Yes,Training from other rep,Yes,Yes,,,,,,,,,,,,,,,,,,,,,,,,,,,,,,,,,Yes,Yes,,Yes,,,,,,,,,
Dar es Salaam,Kinondoni,Magomeni,-6.80891,39.26032,Private,Conduct other business,Bar,12 hours,Yes,2,4,1,Yes,Training from other rep,No,Yes,,,,,,,,,,,,,,,,,,,,Yes,Yes,Yes,Yes,,Yes,,,,,Yes,,,,Yes,,Yes,,,,,,,,,
Tabora,Tabora Urban,Isevya,-5.01768,32.82441,Agnes James,Stand Alone Agent,,12 hours,,,,,,,,,Yes,0,0,1,Yes,Formal classroom training,No,No,,,,,,,,,,,,,,,,,,,,,Yes,,,,Yes,Yes,,Yes,,,,,,,,,
Mwanza,Nyamagana,Nyamagana,-2.57468,32.91935,Agripina Fedic Lwehumbiza,Stand Alone Agent,,12 hours,,,,,,,,,Yes,0,0,1,Yes,Training from other rep,Yes,Yes,,,,,,,,,Yes,,,,,,,,,,,,,,,,Yes,,,,,,,,,,,,
Kilimanjaro,Siha,Iwaeny,-3.32897,37.14895,Richard Alexander,Conduct other business,Bar,12 hours,Yes,20,15,1,Yes,Training from other rep,Yes,Yes,,,,,,,,,,,,,,,,,,,,,Yes,,,,,,,,,,,,Yes,,Yes,Yes,,,,,,,,,
Dar es Salaam,Ilala,Kipawa,-6.86288,39.20549,Agstino Makaki,Stand Alone Agent,,10 hours,,,,,,,,,Yes,0,0,1,Yes,Training from other rep,Yes,Yes,,,,,,,,,,,,,,,,,,,,,,,Yes,Duka,Yes,,,Yes,,,,,,,,,
Dar es Salaam,Ilala,Kisutu,-6.8157,39.28731,Agumba Technology,Stand Alone Agent,,12 hours,,,,,,,,,Yes,0,0,0,Yes,Training from other rep,Yes,Yes,,,,,,,,,Yes,,,,,,,,,Yes,,,,,,,Yes,Yes,Yes,Yes,,,,,,,,,
Dodoma,Dodoma Urban,Tambukareli,-6.22474,35.76042,Rose Grocery,Conduct other business,Bar,12 hours,Yes,10,9,1,Yes,Training from other rep,No,No,,,,,,,,,,,,,,,,,,,,,,,Yes,,,,,,,Yes,,,Yes,Yes,Yes,Yes,,,,,,,,,
Dar es Salaam,Kinondoni,Magomeni,-6.80694,39.24767,Agusta,Stand Alone Agent,,12 hours,,,,,,,,,,,,,,,,,,,,,,,,,,,,,,,,,,,,,,,,,Yes,Yes,Yes,Yes,,,Yes,,No,No,Yes,No,
Dar es Salaam,Kinondoni,Kijitonyama,-6.77168,39.24483,Rosegarden Bar,Conduct other business,Bar,10 hours,Yes,1,1,1,Yes,Training from other rep,Yes,Yes,,,,,,,,,,,,,,,,,Yes,Yes,,,,,Yes,,,,,,,,Yes,Wholesale,Yes,Yes,Yes,Yes,,,,,,,,,
Dar es Salaam,Ilala,Pugu,-6.91997,39.12486,Shop Point,Conduct other business,Bar,12 hours,,,,,,,,,Yes,0,0,1,Yes,Training from other rep,No,Yes,,,,,,,,,,,,,,,Yes,,,,,,,Yes,,,Yes,,,Yes,,,,,,,,,
Morogoro,Kilosa,Kidodi,-7.6797,36.97044,Stellar Gasper,Conduct other business,Bar,12 hours,Yes,0,0,0,No,,No,No,,,,,,,,,,,,,,,,,,,,,,,Yes,,Yes,,,,,,,,Yes,,Yes,Yes,,,,,,,,,
Dar es Salaam,Temeke,Kurasini,-6.85786,39.28124,The Pub One,Conduct other business,Bar,12 hours,,,,,,,,,Yes,0,0,1,Yes,Training from other rep,No,Yes,,,,,,,,,,,,Yes,Yes,Yes,Yes,,,,,,Yes,Yes,,,Yes,,,Yes,,,,,,,,,
Tabora,Igunga,Igunga,-4.28581,33.87698,Tina Tana,Conduct other business,Bar,12 hours,,,,,,,,,Yes,0,0,1,Yes,Training from other rep,No,No,,,,,,,,,,,,,,,Yes,,,,,,,,,,Yes,Yes,,Yes,,,,,,,,,
Dar es Salaam,Kinondoni,Mabibo,-6.80392,39.22414,Ahame Shop,Stand Alone Agent,,12 hours,,,,,,,,,Yes,0,0,0,Yes,Formal classroom training,Yes,Yes,,,,,,,,,,,,,,,,,,,,,,,,,Yes,,,Yes,,,,,,,,,
Tanga,Korogwe,Korogwe,-5.29593,38.60606,Upendo Bar,Conduct other business,Bar,12 hours,,,,,,,,,,,,,,,,,Yes,0,0,0,Yes,Formal classroom training,No,Yes,,,,Yes,Yes,Yes,Yes,,Yes,,Yes,,Yes,Yes,,,Yes,,,Yes,,,,,,,,,
Dar es Salaam,Ilala,Kivukoni,-6.81913,39.28886,Kilimanjaro Fast Ferries,Conduct other business,Book Shop,12 hours,,,,,,,,,Yes,0,0,1,Yes,Formal classroom training,No,Yes,,,,,,,,,,,,,,,,,,,,,,Yes,Yes,Booking Offices,Yes,,,Yes,,,,,,,,,
Dar es Salaam,Kinondoni,Kijitonyama,-6.76577,39.229,Peace Christian Center,Conduct other business,Book Shop,12 hours,,,,,,,,,Yes,0,0,1,Yes,Training from other rep,No,No,,,,,,,,,,Yes,,,Yes,,,,,,,,,,,,Yes,,,Yes,,,,,,,,,
Mwanza,Kwimba,Kikubuji,-2.51592,32.90164,Ahmadi Rasheed,Stand Alone Agent,,12 hours,,,,,,,,,,,,,,,,,Yes,1,1,1,Yes,Training from other rep,Yes,Yes,,,,Yes,,,,,,,,,,Yes,,,Yes,,Yes,Yes,,,,,,,,,
Dar es Salaam,Temeke,Temeke,-6.85588,39.25127,Ahmed Bashiru,Stand Alone Agent,,10 hours,,,,,,,,,,,,,,,,,Yes,0,0,1,Yes,Formal classroom training,Yes,Yes,,Yes,,,,,,,,,,,,,,,Yes,Yes,,Yes,,,,,,,,,
Dar es Salaam,Ilala,Kisutu,-6.81943,39.28597,Salim Saleh,Conduct other business,Book Shop,12 hours,,,,,,,,,Yes,0,0,0,Yes,Training from other rep,Yes,Yes,,,,,,,,,Yes,,,,,Yes,,,,Yes,,,,,,,Yes,Yes,Yes,Yes,,,,,,,,,
Dar es Salaam,Temeke,Miburani,-6.8574,39.26749,Ahmed Sharif,Stand Alone Agent,,12 hours,Yes,0,0,1,Yes,Formal classroom training,No,No,,,,,,,,,,,,,,,,,,,,,Yes,Yes,,,,,,,,,,,Yes,,,Yes,,,,,,,,,
Dar es Salaam,Kinondoni,Goba,-6.65887,39.18379,The Book Shop Store,Conduct other business,Book Shop,12 hours,,,,,,,,,Yes,0,0,1,Yes,Training from other rep,Yes,Yes,,,,,,,,,,Yes,,,,,,,,,,,,,,,Yes,,,Yes,,,,,,,,,
Dar es Salaam,Kinondoni,Kimara,-6.79584,39.13893,Ahmedi Shop,Stand Alone Agent,,12 hours,,,,,,,,,Yes,30,30,1,No,,No,Yes,,,,,,,,,,,,,,,,,,,,,,Yes,,,,Yes,Yes,Yes,,,,,,,,,
Dar es Salaam,Kinondoni,Magomeni,-6.80118,39.24104,Ahmedy Stationary,Stand Alone Agent,,12 hours,Yes,18,25,1,Yes,Training from other rep,Yes,Yes,,,,,,,,,,,,,,,,,,,,,,,,,,,,,,Yes,Yes,Stationary Shop,,,,Yes,,,Yes,,No,Yes,No,No,
Dar es Salaam,Ilala,Kisutu,-6.82425,39.28152,The New Text Book Centre,Conduct other business,Book Shop,8 hours,Yes,0,0,0,Yes,Training from other rep,Yes,Yes,,,,,,,,,,,,,,,,,,Yes,,,,,,,,,,,,,,,Yes,Yes,Yes,Yes,,,,,,,,,
Dar es Salaam,Temeke,Keko,-6.83362,39.27553,Aida Ahadi,Stand Alone Agent,,12 hours,Yes,0,0,1,Yes,Formal classroom training,Yes,No,,,,,,,,,,,,,,,,,,,,,Yes,,Yes,,,,,,,,Yes,Industry,Yes,,,Yes,,,,,,,,,
Dar es Salaam,Kinondoni,Ubungo,-6.78725,39.19875,Aida Prisch,Stand Alone Agent,,12 hours,,,,,,,,,Yes,10,15,1,Yes,Training from other rep,No,Yes,,,,,,,,,,,,Yes,Yes,,,,Yes,,,,,,,,,Yes,,Yes,,,,,,,,,
Dar es Salaam,Kinondoni,Sinza,-6.77366,39.23349,Anita Shop,Conduct other business,Boutique,10 hours,,,,,,,,,Yes,0,0,1,Yes,Training from other rep,No,Yes,,,,,,,,,,,,Yes,,,,,,,,,,,,,Yes,Yes,,,,,,,,,,,
Dar es Salaam,Temeke,Temeke,-6.8644,39.26891,Asha Abdallah,Conduct other business,Boutique,12 hours,Yes,0,0,1,No,,No,No,,,,,,,,,,,,,,,,,,,,,,,,,,,Yes,,,,Yes,Duka,Yes,,,Yes,,,,,,,,,
Dar es Salaam,Temeke,Mtoni,-6.88992,39.28178,Batuli,Conduct other business,Boutique,10 hours,Yes,0,0,1,Yes,Formal classroom training,No,No,,,,,,,,,,,,,,,,,,,,,Yes,Yes,,,,,,,,,,,Yes,,,Yes,,,,,,,,,
Dar es Salaam,Temeke,Kigamboni,-6.83678,39.3177,Dfp Beauty Shop,Conduct other business,Boutique,12 hours,Yes,0,35,1,Yes,Formal classroom training,No,Yes,,,,,,,,,,,,,,,,,,,,,Yes,,Yes,,,,,,,Yes,,,Yes,,,Yes,,,,,,,,,
Dar es Salaam,Ilala,Kitunda,-6.87015,39.18824,Aisha,Stand Alone Agent,,12 hours,Yes,0,0,1,Yes,Training from other rep,No,Yes,,,,,,,,,,,,,,,,,,,,,,,,,,,,,,Yes,,,Yes,,,Yes,,,,,,,,,
Dar es Salaam,Temeke,Kigamboni,-6.82421,39.30377,Ebenezer Classic Boutique,Conduct other business,Boutique,12 hours,Yes,0,0,1,Yes,Formal classroom training,No,Yes,,,,,,,,,,,,,,,,,,Yes,,,,,,,,,,,,Yes,Yes,Church,Yes,,,Yes,,,,,,,,,
Arusha,Arusha,Kati,-3.37157,36.68734,Eveline Botique,Conduct other business,Boutique,12 hours,Yes,32,30,1,Yes,Formal classroom training,Yes,Yes,,,,,,,,,,,,,,,,,,Yes,Yes,Yes,Yes,,Yes,,Yes,,,,,Yes,,,Yes,Yes,Yes,Yes,,,,,,,,,
Dar es Salaam,Ilala,Buguruni,-6.83031,39.25204,Hawa Abebe,Conduct other business,Boutique,12 hours,Yes,0,0,1,Yes,Formal classroom training,No,Yes,,,,,,,,,,,,,,,,,,,,,Yes,Yes,Yes,,,,,,,,,,Yes,,,Yes,,,,,,,,,
Dar es Salaam,Temeke,Azimio,-6.87737,39.26347,Aisha Abdallah,Stand Alone Agent,,10 hours,,,,,,,,,,,,,,,,,Yes,0,0,1,Yes,Training from other rep,No,No,,,,Yes,,Yes,,,,,,,,,Yes,Duka,Yes,,,Yes,,,,,,,,,
Dar es Salaam,Temeke,Mtoni,-6.87207,39.27287,Aisha Alawi,Stand Alone Agent,,12 hours,Yes,0,0,1,Yes,Formal classroom training,Yes,No,,,,,,,,,,,,,,,,,,,,,Yes,Yes,Yes,,,,,,,,,,Yes,,,Yes,,,,,,,,,
Dar es Salaam,Kinondoni,Mbezi,-6.71178,39.19019,Aisha Jacob Shabani,Stand Alone Agent,,10 hours,Yes,0,0,1,Yes,Training from other rep,Yes,Yes,,,,,,,,,,,,,,,,,Yes,,,,Yes,,,,,,,,,,,,Yes,Yes,Yes,Yes,,,,,,,,,
Dar es Salaam,Kinondoni,Kimara,-6.80675,39.16652,Aisha Kijavara,Stand Alone Agent,,12 hours,Yes,5,10,1,Yes,Training from other rep,No,Yes,,,,,,,,,,,,,,,,,,,,Yes,Yes,,,,,,,,Yes,,,,,Yes,,Yes,,,,,,,,,
Dar es Salaam,Temeke,Yombo Vituka,-6.8829,39.21674,Aisha Maginga,Stand Alone Agent,,12 hours,Yes,0,0,1,Yes,Training from other rep,No,Yes,,,,,,,,,,,,,,,,,,,,,,,,,,,,,,,Yes,Butcher,Yes,,,Yes,,,,,,,,,
Dar es Salaam,Kinondoni,Bunju,-6.63319,39.15715,Mechmaster Limited,Conduct other business,Boutique,12 hours,Yes,0,0,1,Yes,Formal classroom training,No,Yes,,,,,,,,,,,,,,,,,,,,,,,Yes,,,,,,,,,,,Yes,,Yes,,,,,,,,,
Arusha,Arusha,Kaloleni,-3.36852,36.6866,Moris Choice,Conduct other business,Boutique,10 hours,,,,,,,,,Yes,0,0,1,Yes,Formal classroom training,Yes,Yes,,,,,,,,,,Yes,Yes,Yes,Yes,Yes,,Yes,,,Yes,,Yes,,,,Yes,,,Yes,,,,,,,,,
Tabora,Tabora Urban,Kanyenye,-5.02075,32.80523,Mwami,Conduct other business,Boutique,12 hours,,,,,,,,,Yes,0,0,1,Yes,Training from other rep,No,No,,,,,,,,,,,,,,Yes,,,,,,,,,,,Yes,Yes,,Yes,,,,,,,,,
Tabora,Tabora Urban,Ipuli,-5.016,32.82465,Aisha Shop,Stand Alone Agent,,12 hours,,,,,,,,,,,,,,,,,Yes,0,0,1,Yes,Training from other rep,No,No,,,,Yes,,,,,,,,,,,,,Yes,Yes,,Yes,,,,,,,,,
Dar es Salaam,Temeke,Kigamboni,-6.82325,39.30342,Rose Boutique,Conduct other business,Boutique,12 hours,,,,,,,,,Yes,0,0,1,No,,No,No,,,,,,,,,,,,,,,,Yes,,,,Yes,,,,,Yes,Yes,Yes,Yes,,,,,,,,,
Dar es Salaam,Kinondoni,Mikocheni,-6.76538,39.25892,Secrets,Conduct other business,Boutique,8 hours,Yes,0,0,0,Yes,Training from other rep,Yes,Yes,Yes,0,0,0,Yes,Training from other rep,No,No,,,,,,,,,,Yes,,,,,,,,,,,,,,,Yes,,,,,,,,,,,,
Dar es Salaam,Kinondoni,Kunduchi,-6.68882,39.19386,Total Junction,Conduct other business,Boutique,12 hours,Yes,0,0,1,Yes,Training from other rep,Yes,Yes,,,,,,,,,,,,,,,,,,Yes,,,,,,,,,,,,,,,Yes,,,,,,Yes,,Yes,No,No,No,
Dar es Salaam,Kinondoni,Mabibo,-6.80254,39.2171,AjPhamacy,Stand Alone Agent,,12 hours,,,,,,,,,Yes,0,0,0,Yes,Formal classroom training,Yes,Yes,,,,,,,,,,,,,,,,,,,,,,,,,Yes,,,Yes,,,,,,,,,
Dar es Salaam,Temeke,Chamazi,-6.95454,39.22576,Aj Shop,Stand Alone Agent,,12 hours,,,,,,,,,Yes,0,0,1,Yes,Formal classroom training,No,No,,,,,,,,,,,,,,Yes,,,,,,,,,,,Yes,,,Yes,,,,,,,,,
Dar es Salaam,Kinondoni,Mbezi,-6.72463,39.21255,Z.Z 2,Conduct other business,Boutique,10 hours,,,,,,,,,Yes,0,0,1,Yes,Training from other rep,Yes,Yes,,,,,,,,,,Yes,,,,,,,,,,,,,,,Yes,Yes,,Yes,,,,,,,,,
Dar es Salaam,Temeke,Mbagala,-6.91733,39.25167,Zai Lupa Shop,Conduct other business,Boutique,12 hours,,,,,,,,,,,,,,,,,Yes,0,0,1,Yes,Formal classroom training,No,Yes,,,,,Yes,,,,,,,,,Yes,Yes,Market,Yes,,,Yes,,,,,,,,,
Dar es Salaam,Ilala,Ukonga,-6.86621,39.20712,Imalaseko,Conduct other business,Bureau De Change,24 hours,,,,,,,,,,,,,,,,,Yes,0,0,1,Yes,Training from other rep,No,Yes,,,,,,,,,,,,,,,Yes,Airport,Yes,,,Yes,,,,,,,,,
Dar es Salaam,Ilala,Segerea,-6.83927,39.19436,Amili Alifa,Conduct other business,Butcher,12 hours,Yes,0,0,1,Yes,Training from other rep,No,Yes,,,,,,,,,,,,,,,,,,,,,Yes,,,,,,,,,,,,Yes,Yes,Yes,Yes,,,,,,,,,
Dar es Salaam,Ilala,Kipawa,-6.85859,39.20406,Batazari Temu,Conduct other business,Caf_,12 hours,Yes,0,0,1,Yes,Training from other rep,No,Yes,,,,,,,,,,,,,,,,,Yes,Yes,Yes,,,,,,,,,,,,,,Yes,Yes,,Yes,,,,,,,,,
Arusha,Arusha,Ngarenaro,-3.37595,36.68038,Big Sister Cafe,Conduct other business,Caf_,10 hours,,,,,,,,,Yes,0,0,1,Yes,Training from other rep,No,Yes,,,,,,,,,Yes,Yes,,Yes,Yes,,,Yes,,,Yes,Yes,Yes,,,,Yes,Yes,,Yes,,,,,,,,,
Lindi,Kilwa,Masoko,-8.92509,39.51111,Christopher Soka,Conduct other business,Caf_,12 hours,Yes,0,0,0,Yes,Training from other rep,Yes,Yes,,,,,,,,,,,,,,,,,,,,,Yes,,,,Yes,,,,,Yes,Yes,Bus Stand,Yes,,,Yes,,,,,,,,,
Dar es Salaam,Ilala,Vingunguti,-6.84504,39.23185,Akida Mawanja,Stand Alone Agent,,12 hours,,,,,,,,,Yes,0,0,1,Yes,Training from other rep,Yes,Yes,,,,,,,,,,,,,,Yes,,,,,,,,,,,Yes,,,Yes,,,,,,,,,
Dodoma,Dodoma Urban,Kilimani,-6.18499,35.7487,Dodoma Hotel Internet Cafe,Conduct other business,Caf_,12 hours,,,,,,,,,Yes,50,0,1,Yes,Training from other rep,No,Yes,,,,,,,,,,,,,Yes,,Yes,,,,Yes,,,Yes,,,Yes,Yes,Yes,Yes,,,,,,,,,
Dar es Salaam,Kinondoni,Ubungo,-6.80208,39.20886,Akomon,Stand Alone Agent,,12 hours,,,,,,,,,Yes,0,0,1,Yes,Training from other rep,No,No,,,,,,,,,,,,,,,,,,,,,,,,,Yes,Yes,Yes,Yes,,,Yes,,Yes,No,No,No,
Kilimanjaro,Rombo,Ushiri Ikuini,-3.34686,37.34516,Akyeni. W,Stand Alone Agent,,12 hours,,,,,,,,,Yes,50,35,1,Yes,Training from other rep,No,Yes,,,,,,,,,,,,,,,Yes,,,,,,,,,,Yes,,Yes,Yes,,,,,,,,,
Dar es Salaam,Kinondoni,Kijitonyama,-6.76923,39.22866,Emanuel Cafe,Conduct other business,Caf_,12 hours,,,,,,,,,Yes,0,0,1,Yes,Training from other rep,No,Yes,,,,,,,,,,,,,,,,Yes,,,,,,,,,Yes,Yes,,,,,,,,,,,
Arusha,Arusha,Kati,-3.37209,36.68493,Aladi Shop,Stand Alone Agent,,12 hours,,,,,,,,,Yes,31,30,1,Yes,Formal classroom training,Yes,Yes,,,,,,,,,,,,Yes,Yes,Yes,Yes,,Yes,Yes,,Yes,,Yes,Yes,Market,Yes,Yes,,Yes,,,,,,,,,
Arusha,Arusha,Kimandolu,-3.38927,36.73011,Faith And Gs,Conduct other business,Caf_,12 hours,,,,,,,,,Yes,5,4,1,Yes,Formal classroom training,Yes,Yes,,,,,,,,,,,Yes,Yes,,Yes,Yes,,,Yes,,,Yes,,,,Yes,Yes,,Yes,,,,,,,,,
Dar es Salaam,Temeke,Yombo Vituka,-6.8859,39.23189,Alba Dimoso,Stand Alone Agent,,12 hours,Yes,0,0,1,Yes,Training from other rep,No,Yes,,,,,,,,,,,,,,,,,,,,,,,,,,,,,,Yes,Yes,Tailoring Shop,Yes,,,Yes,,,,,,,,,
Dar es Salaam,Ilala,Kariakoo,-6.81329,39.27308,Albajun,Stand Alone Agent,,12 hours,,,,,,,,,Yes,0,0,0,Yes,Training from other rep,Yes,Yes,,,,,,,,,,Yes,Yes,,,,,,,,,,,,,,,Yes,,Yes,,,,,,,,,
Dar es Salaam,Kinondoni,Kimara,-6.78645,39.15733,Albert Cosmas,Stand Alone Agent,,12 hours,,,,,,,,,Yes,0,0,0,Yes,Training from other rep,No,Yes,,,,,,,,,,,,,,,,,,,,,,,,,Yes,,,Yes,,,,,,,,,
Dodoma,Dodoma Rural,Bahi,-5.94969,35.31164,Albert Kiyunzi,Stand Alone Agent,,12 hours,,,,,,,,,Yes,20,28,1,Yes,Training from other rep,No,Yes,,,,,,,,,,,,,,,Yes,,,,,,,,,,Yes,Yes,Yes,Yes,,,,,,,,,
Dar es Salaam,Kinondoni,Sinza,-6.78022,39.22149,Joanita Shop,Conduct other business,Caf_,12 hours,,,,,,,,,Yes,0,0,1,Yes,Training from other rep,No,No,,,,,,,,,,,,Yes,,,,,,,,,,,,,Yes,Yes,,,,,,,,,,,
Dar es Salaam,Kinondoni,Sinza,-6.77309,39.22474,Albina Shop,Stand Alone Agent,,12 hours,,,,,,,,,,,,,,,,,Yes,2,30,2,Yes,Training from other rep,Yes,Yes,,Yes,,,,,,,,,,,,,,,Yes,,,Yes,,,,,,,,,
Dar es Salaam,Kinondoni,Kinondoni,-6.79221,39.26188,Jusek Shop,Conduct other business,Caf_,12 hours,,,,,,,,,Yes,0,0,1,Yes,Formal classroom training,No,Yes,,,,,,,,,,,,,,,,,,,,,,Yes,,,,Yes,,Yes,,,,,,,,,
Dar es Salaam,Temeke,Azimio,-6.8742,39.26928,Mama Seif Cafe,Conduct other business,Caf_,12 hours,Yes,0,0,1,Yes,Training from other rep,No,Yes,,,,,,,,,,,,,,,,,,,,Yes,Yes,,,,,,,,Yes,Yes,,,Yes,Yes,,Yes,,,,,,,,,
Dar es Salaam,Ilala,Tabata,-6.82537,39.23023,Alen,Stand Alone Agent,,12 hours,,,,,,,,,Yes,0,0,1,Yes,Training from other rep,Yes,Yes,,,,,,,,,,,,,,,,,,,,,,,,,Yes,Yes,Yes,Yes,,,,,,,,,
Dar es Salaam,Ilala,Mchafukoge,-6.82284,39.28286,Marina Omary,Conduct other business,Caf_,12 hours,Yes,0,0,1,Yes,Formal classroom training,No,Yes,,,,,,,,,,,,,,,,,,,,,,Yes,,,,,,,,Yes,,,Yes,,,Yes,,,,,,,,,
Dar es Salaam,Kinondoni,Kijitonyama,-6.76571,39.23017,Mjuni Shop,Conduct other business,Caf_,12 hours,,,,,,,,,Yes,0,0,1,Yes,Training from other rep,No,Yes,,,,,,,,,,Yes,,,,,,,,,,,,,,,Yes,Yes,,,,,,,,,,,
Tabora,Uyui,Ndono,-5.01964,32.80147,Rama Shop,Conduct other business,Caf_,12 hours,Yes,0,0,1,Yes,Training from other rep,No,Yes,,,,,,,,,,,,,,,,,,,,,Yes,,,,,,,,,,,,Yes,Yes,,Yes,,,,,,,,,
Dar es Salaam,Temeke,Mbagala,-6.89474,39.27748,Alex Godfrey,Stand Alone Agent,,12 hours,Yes,0,0,1,Yes,Training from other rep,No,Yes,,,,,,,,,,,,,,,,,,,,Yes,Yes,Yes,Yes,,Yes,,,,,,Yes,Tailoring Shop,Yes,,,Yes,,,,,,,,,
Dar es Salaam,Kinondoni,Kawe,-6.7674,39.22508,Shimi Shop,Conduct other business,Caf_,12 hours,Yes,0,0,1,Yes,Training from other rep,No,Yes,,,,,,,,,,,,,,,,,,,,,,,,,,,,,Yes,,,,Yes,Yes,,,,,,,,,,,
Dar es Salaam,Kinondoni,Kimara,-6.78434,39.16449,Smartmind Solution,Conduct other business,Caf_,12 hours,Yes,0,0,0,Yes,Training from other rep,Yes,Yes,,,,,,,,,,,,,,,,,,,,,,,,,,,,,,Yes,,,Yes,,,,,,,,,,,,
Dar es Salaam,Kinondoni,Kawe,-6.73812,39.22766,Stamili Shop,Conduct other business,Caf_,10 hours,,,,,,,,,Yes,100,50,1,Yes,Training from other rep,No,Yes,,,,,,,,,,,,,,,,,,,,,,,Yes,Used and new spares carssellers,Yes,Yes,Yes,Yes,,,,,,,,,
Dar es Salaam,Ilala,Kipawa,-6.86038,39.20448,Ric Shop,Conduct other business,Cake shop,12 hours,,,,,,,,,Yes,0,0,1,Yes,Training from other rep,No,Yes,,,,,,,,,,,,,,,,,,,,,,,Yes,Clothing Shop,Yes,,,Yes,,,,,,,,,
Mbeya,Mbeya Urban,Ruanda,-8.91153,33.46302,Alex Mlay,Stand Alone Agent,,12 hours,,,,,,,,,Yes,25,25,1,Yes,Training from other rep,No,Yes,,,,,,,,,,,,,,,,,Yes,,,Yes,,,,,Yes,,Yes,Yes,,,,,,,,,
Dar es Salaam,Kinondoni,Magomeni,-6.80863,39.25951,Abdalah Ahmed,Conduct other business,CD&DVD Library,12 hours,Yes,20,40,1,Yes,Training from other rep,No,Yes,,,,,,,,,,,,,,,,,,,,Yes,Yes,,,,,,,,,,,,,Yes,,Yes,,,,,,,,,
Dar es Salaam,Temeke,Mbagala,-6.92157,39.26994,Alex Peter,Stand Alone Agent,,12 hours,Yes,0,0,1,Yes,Training from other rep,No,Yes,,,,,,,,,,,,,,,,,,,,Yes,Yes,Yes,Yes,,,,,,,,Yes,Tailoring Shop,Yes,,,Yes,,,,,,,,,
Iringa,Njombe,Njombe Mjini,-9.35896,34.78123,Abia Store,Conduct other business,CD&DVD Library,12 hours,Yes,0,0,0,Yes,Training from other rep,No,No,,,,,,,,,,,,,,,,,,,,,,,,,,,,,,,Yes,Duka,Yes,,,Yes,,,,,,,,,
Dar es Salaam,Temeke,Mtoni,-6.87192,39.26903,Ahmada Abdalah Mkumba,Conduct other business,CD&DVD Library,12 hours,Yes,0,0,1,Yes,Formal classroom training,No,Yes,,,,,,,,,,,,,,,,,,,,,Yes,Yes,Yes,,,,,,,,,,Yes,,,Yes,,,,,,,,,
Dar es Salaam,Ilala,Ukonga,-6.87254,39.16078,Ally Ramadhani,Conduct other business,CD&DVD Library,12 hours,Yes,0,0,1,Yes,Formal classroom training,No,Yes,,,,,,,,,,,,,,,,,,,,,Yes,,,,,,,,,,,,Yes,Yes,Yes,Yes,,,,,,,,,
Dar es Salaam,Temeke,Yombo Vituka,-6.89292,39.23514,Amina,Conduct other business,CD&DVD Library,12 hours,Yes,0,0,1,Yes,Training from other rep,No,Yes,,,,,,,,,,,,,,,,,,,,,,,Yes,,,,,,,Yes,,,Yes,,,Yes,,,,,,,,,
Morogoro,Morogoro Urban,Kichangani,-6.80364,37.69179,Alexander Kahumba,Stand Alone Agent,,12 hours,,,,,,,,,,,,,,,,,Yes,0,0,1,Yes,Training from other rep,No,No,,,,,,,,,,,,,,Yes,,,Yes,,,Yes,,,,,,,,,
Dar es Salaam,Temeke,Kigamboni,-6.94349,39.30634,Amis Shop,Conduct other business,CD&DVD Library,12 hours,Yes,0,0,1,Yes,Formal classroom training,No,Yes,,,,,,,,,,,,,,,,,,,,,,Yes,,,Yes,,,,,,,,,Yes,,Yes,,,,,,,,,
Dar es Salaam,Kinondoni,Ubungo,-6.79255,39.21258,Alfaki Shop,Stand Alone Agent,,12 hours,,,,,,,,,Yes,0,0,1,No,,No,No,,,,,,,,,,,,Yes,,,,,,,,,,,,,Yes,,,Yes,,,,,,,,,
Dar es Salaam,Temeke,Mtoni,-6.88505,39.27867,Alfakshell,Stand Alone Agent,,12 hours,,,,,,,,,Yes,0,0,1,Yes,Training from other rep,Yes,Yes,,,,,,,,,,,,Yes,Yes,Yes,Yes,Yes,,,,,,,Yes,Petrol Station,Yes,,,Yes,,,,,,,,,
Dar es Salaam,Temeke,Mbagala,-6.91461,39.27335,Alfred,Stand Alone Agent,,10 hours,Yes,0,0,1,Yes,Training from other rep,Yes,Yes,,,,,,,,,,,,,,,,,,,,,Yes,Yes,Yes,Yes,,,,,,,Yes,Petrol Station,Yes,,,Yes,,,,,,,,,
Dar es Salaam,Temeke,Azimio,-6.87741,39.26904,Ashura Saloon,Conduct other business,CD&DVD Library,12 hours,Yes,0,0,1,Yes,Training from other rep,No,Yes,,,,,,,,,,,,,,,,,,,,Yes,Yes,,,,,,,,Yes,Yes,,,Yes,Yes,,Yes,,,,,,,,,
Dar es Salaam,Kinondoni,Kawe,-6.76737,39.22509,Baraka Shop,Conduct other business,CD&DVD Library,12 hours,Yes,2,3,1,Yes,Training from other rep,No,Yes,,,,,,,,,,,,,,,,,,,,Yes,,,Yes,,,,,,Yes,,,,,Yes,,Yes,,,,,,,,,
Dar es Salaam,Temeke,Mtoni,-6.89091,39.28595,Alfred Mjuni,Stand Alone Agent,,12 hours,,,,,,,,,Yes,0,0,1,Yes,Training from other rep,No,Yes,,,,,,,,,,,,Yes,Yes,Yes,Yes,Yes,,,,,,,Yes,Furniture sales,Yes,,,Yes,,,,,,,,,
Arusha,Arusha,Ngarenaro,-3.36947,36.67544,Bh Cannal,Conduct other business,CD&DVD Library,10 hours,,,,,,,,,Yes,0,0,1,Yes,Training from other rep,Yes,Yes,,,,,,,,,,,Yes,,Yes,Yes,Yes,,,,Yes,,Yes,,,,Yes,,,Yes,,,,,,,,,
Dar es Salaam,Kinondoni,Kunduchi,-6.66886,39.18946,Alfred Shop,Stand Alone Agent,,12 hours,,,,,,,,,Yes,0,0,1,Yes,Formal classroom training,No,Yes,,,,,,,,,,,,,,,,,,,,,,Yes,Yes,Mobile Money Agent,Yes,Yes,,Yes,,,,,,,,,
Dar es Salaam,Kinondoni,Mbezi,-6.78049,39.11798,Bm Library,Conduct other business,CD&DVD Library,12 hours,,,,,,,,,Yes,0,0,0,Yes,Formal classroom training,Yes,Yes,,,,,,,,,,,,,,Yes,,,,,,,,,,,Yes,,,,,,,,,,,,
Dar es Salaam,Ilala,Kitunda,-6.90392,39.19517,Bonavencha Januari Tesha,Conduct other business,CD&DVD Library,12 hours,,,,,,,,,Yes,0,0,1,Yes,Formal classroom training,No,Yes,,,,,,,,,,,,,,,,,,,,,,,,,Yes,Yes,Yes,Yes,,,,,,,,,
Dar es Salaam,Ilala,Segerea,-6.84549,39.22516,Ali Salehe,Stand Alone Agent,,12 hours,,,,,,,,,,,,,,,,,Yes,0,0,1,Yes,Training from other rep,Yes,Yes,,,Yes,,,,,,,,,,,,,,Yes,,,Yes,,,,,,,,,
Dar es Salaam,Ilala,Tabata,-6.8193,39.21959,Alice,Stand Alone Agent,,12 hours,,,,,,,,,Yes,0,0,1,Yes,Formal classroom training,Yes,Yes,,,,,,,,,,Yes,,,,,,,,,,,,,,,Yes,Yes,,Yes,,,,,,,,,
Arusha,Arusha,Unga L.T.D.,-3.41456,36.68744,Alice Shop,Stand Alone Agent,,12 hours,,,,,,,,,,,,,,,,,Yes,0,0,1,Yes,Training from other rep,No,Yes,,,,,Yes,Yes,,,,,,,,,,,,,,Yes,,,,,,,,,
Dar es Salaam,Kinondoni,Kawe,-6.73729,39.22716,Alicia Shop,Stand Alone Agent,,12 hours,Yes,35,40,1,Yes,Training from other rep,Yes,No,,,,,,,,,,,,,,,,,,Yes,,,,,,,,,,,,,,,,,,Yes,,,Yes,,No,Yes,No,No,
Dar es Salaam,Ilala,Ukonga,-6.86576,39.18946,Alinda James,Stand Alone Agent,,12 hours,,,,,,,,,Yes,0,0,1,Yes,Training from other rep,Yes,Yes,,,,,,,,,,,,,,,,,,,,,,,,,Yes,Yes,,Yes,,,,,,,,,
Dar es Salaam,Temeke,Mbagala,-6.89627,39.27015,Bosco Shop,Conduct other business,CD&DVD Library,12 hours,,,,,,,,,,,,,,,,,Yes,0,0,1,Yes,Training from other rep,No,Yes,,,,Yes,Yes,Yes,Yes,Yes,,,,,,,Yes,Lodge,Yes,,,Yes,,,,,,,,,
Dar es Salaam,Temeke,Mbagala,-6.90007,39.28359,Bravo 2,Conduct other business,CD&DVD Library,10 hours,Yes,0,0,1,Yes,Training from other rep,Yes,Yes,,,,,,,,,,,,,,,,,,,,Yes,Yes,Yes,Yes,,,,,,,,Yes,School,Yes,,,Yes,,,,,,,,,
Dar es Salaam,Ilala,Buguruni,-6.82638,39.25075,Alis Luoga,Stand Alone Agent,,12 hours,,,,,,,,,Yes,0,0,1,Yes,Training from other rep,No,Yes,,,,,,,,,,,,,Yes,,,,,,,,,,,,Yes,,,Yes,,,,,,,,,
Dar es Salaam,Temeke,Kigamboni,-6.82232,39.30238,Buku 2 Shop,Conduct other business,CD&DVD Library,12 hours,Yes,0,0,0,Yes,Training from other rep,Yes,Yes,,,,,,,,,,,,,,,,,,Yes,Yes,,,Yes,,,Yes,,,Yes,,Yes,,,Yes,Yes,Yes,Yes,,,,,,,,,
Arusha,Arusha,Sombetini,-3.3925,36.6629,Chacha Shop,Conduct other business,CD&DVD Library,12 hours,,,,,,,,,Yes,0,0,1,Yes,Formal classroom training,Yes,Yes,,,,,,,,,,,,,Yes,Yes,Yes,,,,,,Yes,,,,Yes,,,Yes,,,,,,,,,
Dar es Salaam,Temeke,Yombo Vituka,-6.88636,39.2374,Chamtima,Conduct other business,CD&DVD Library,12 hours,Yes,0,0,1,Yes,Training from other rep,No,Yes,,,,,,,,,,,,,,,,,,,,,,,,,,,,,,Yes,Yes,Duka,Yes,,,Yes,,,,,,,,,
Dar es Salaam,Kinondoni,Magomeni,-6.81134,39.2619,Congo Shop,Conduct other business,CD&DVD Library,12 hours,Yes,10,15,1,Yes,Training from other rep,No,Yes,,,,,,,,,,,,,,,,,,,,,Yes,Yes,,,,,,,,,,,,Yes,Yes,Yes,,,,,,,,,
Dar es Salaam,Kinondoni,Kimara,-6.78592,39.17504,Cristina Shop,Conduct other business,CD&DVD Library,12 hours,Yes,0,0,0,Yes,Training from other rep,Yes,Yes,,,,,,,,,,,,,,,,,,,,,,,,,,,,,,,,,Yes,,,,,,,,,,,,
Dar es Salaam,Kinondoni,Mabibo,-6.80702,39.21714,D.G Library,Conduct other business,CD&DVD Library,12 hours,Yes,0,0,0,Yes,Formal classroom training,Yes,Yes,,,,,,,,,,,,,,,,,,,,,,,,,,,,,,,,,Yes,,,Yes,,,,,,,,,
Dar es Salaam,Temeke,Charambe,-6.9341,39.24866,All FunctionInvestment,Stand Alone Agent,,12 hours,,,,,,,,,Yes,0,0,1,Yes,Training from other rep,No,Yes,,,,,,,,,,,,,Yes,Yes,Yes,Yes,Yes,,,,,,Yes,Hardware Shop,Yes,,,Yes,,,,,,,,,
Dar es Salaam,Temeke,Mtoni,-6.87446,39.26697,Daniel Ngabo,Conduct other business,CD&DVD Library,12 hours,Yes,0,0,1,Yes,Training from other rep,No,No,,,,,,,,,,,,,,,,,,,,,,,Yes,,,,,,,,Yes,Duka,Yes,,,Yes,,,,,,,,,
Dar es Salaam,Temeke,Mbagala,-6.91286,39.27843,All Sued,Stand Alone Agent,,12 hours,Yes,0,0,1,Yes,Training from other rep,No,Yes,,,,,,,,,,,,,,,,,,,,Yes,Yes,Yes,Yes,Yes,,,,,,,Yes,Market,Yes,,,Yes,,,,,,,,,
Dar es Salaam,Ilala,Buguruni,-6.84405,39.22939,Allah Is Power Ful,Stand Alone Agent,,12 hours,Yes,0,0,1,Yes,Training from other rep,Yes,Yes,,,,,,,,,,,,,,,,,,,Yes,,,,,,,,,,,,,,Yes,,,Yes,,,,,,,,,
Dar es Salaam,Temeke,Charambe,-6.89932,39.23912,Donald Electronic Company,Conduct other business,CD&DVD Library,12 hours,,,,,,,,,Yes,0,0,1,No,,No,No,,,,,,,,,,,,Yes,,,,,,,,,,,Yes,Duka,Yes,,,Yes,,,,,,,,,
Dar es Salaam,Temeke,Yombo Vituka,-6.87393,39.24201,Alliya,Stand Alone Agent,,12 hours,Yes,0,0,0,Yes,Training from other rep,Yes,Yes,,,,,,,,,,,,,,,,,,Yes,,,,Yes,,,,,,,,,,,Yes,,,Yes,,,,,,,,,
Pwani,Kibaha,Mlandizi,-6.71725,38.73865,Allon,Stand Alone Agent,,12 hours,Yes,0,0,1,Yes,Training from other rep,No,No,,,,,,,,,,,,,,,,,,,,,,,,,,,,,,,,,Yes,Yes,Yes,Yes,,,Yes,,No,Yes,No,No,
Dar es Salaam,Temeke,Mbagala,-6.93956,39.26633,Ally,Stand Alone Agent,,10 hours,,,,,,,,,Yes,0,0,1,Yes,Formal classroom training,Yes,Yes,,,,,,,,,,Yes,,,,,,,,,,,,,,,Yes,Yes,,Yes,,,,,,,,,
Dar es Salaam,Temeke,Yombo Vituka,-6.86247,39.24571,Drama Said,Conduct other business,CD&DVD Library,12 hours,,,,,,,,,Yes,0,10,1,Yes,Formal classroom training,No,Yes,,,,,,,,,,,,,,,,,,,,,,Yes,,,Yes,Yes,Yes,Yes,,,,,,,,,
Dar es Salaam,Temeke,Mbagala,-6.92445,39.27238,Ally Abdallah Mpulile,Stand Alone Agent,,12 hours,Yes,0,0,1,Yes,Training from other rep,No,Yes,,,,,,,,,,,,,,,,,,,Yes,Yes,Yes,Yes,Yes,Yes,Yes,,,,,,Yes,Hardware Shop,Yes,,,Yes,,,,,,,,,
Mbeya,Mbeya Urban,Iyunga,-8.92758,33.41617,Ally Ally,Stand Alone Agent,,12 hours,,,,,,,,,,,,,,,,,Yes,13,24,0,No,,No,Yes,,Yes,,,,,,,,,,,,,,,Yes,,,Yes,,,,,,,,,
Dar es Salaam,Temeke,Yombo Vituka,-6.89317,39.21635,Eddy Mapesa,Conduct other business,CD&DVD Library,12 hours,Yes,0,0,1,Yes,Training from other rep,No,Yes,,,,,,,,,,,,,,,,,,,,,,,,,,,,,,Yes,Yes,Duka,Yes,,,Yes,,,,,,,,,
Dar es Salaam,Temeke,Mtoni,-6.87436,39.27267,Edith Isack,Conduct other business,CD&DVD Library,12 hours,Yes,0,0,1,Yes,Training from other rep,No,No,,,,,,,,,,,,,,,,,Yes,,,,Yes,,,,,,,Yes,,,,,Yes,,,Yes,,,,,,,,,
Dar es Salaam,Ilala,Ukonga,-6.86126,39.20152,Emmanuel Jonson,Conduct other business,CD&DVD Library,12 hours,Yes,0,0,1,Yes,Training from other rep,No,Yes,,,,,,,,,,,,,,,,,,,,,,,,,,,,,,,Yes,Duka,Yes,Yes,,Yes,,,,,,,,,
Dar es Salaam,Ilala,Ukonga,-6.87952,39.16515,Enock Moses Mazembe,Conduct other business,CD&DVD Library,12 hours,Yes,0,10,1,Yes,Training from other rep,No,Yes,,,,,,,,,,,,,,,,,,,,,,,,Yes,,,,,,,,,Yes,Yes,Yes,Yes,,,,,,,,,
Dar es Salaam,Ilala,Kipawa,-6.86203,39.20519,Evance Binamungu,Conduct other business,CD&DVD Library,12 hours,Yes,0,0,1,Yes,Training from other rep,No,Yes,,,,,,,,,,,,,,,,,,,,,,,,,,,,,,,Yes,Duka,Yes,Yes,,Yes,,,,,,,,,
Dar es Salaam,Ilala,Segerea,-6.86478,39.18646,Evodius D. Kahwa,Conduct other business,CD&DVD Library,12 hours,,,,,,,,,,,,,,,,,Yes,0,0,1,Yes,Training from other rep,No,Yes,,,,,,,,,,,,,,,Yes,Duka,Yes,,,Yes,,,,,,,,,
Dar es Salaam,Ilala,Buguruni,-6.83575,39.25127,Ally Issa,Stand Alone Agent,,12 hours,Yes,0,0,1,Yes,Training from other rep,No,No,,,,,,,,,,,,,,,,,,,,,,,,,,,,,,,Yes,Hardware Shop,Yes,,,Yes,,,,,,,,,
Pwani,Mkuranga,Vikindu,-6.9829,39.29421,Ally Juma,Stand Alone Agent,,12 hours,Yes,0,0,1,Yes,Training from other rep,No,No,,,,,,,,,,,,,,,,,,,,,Yes,Yes,Yes,Yes,,,,,,,Yes,Hardware Shop,Yes,,,Yes,,,,,,,,,
Dar es Salaam,Temeke,Yombo Vituka,-6.89553,39.24065,Frank,Conduct other business,CD&DVD Library,12 hours,Yes,0,0,1,Yes,Training from other rep,No,Yes,,,,,,,,,,,,,,,,,,,,,Yes,Yes,,,,,,,,,,,Yes,,,Yes,,,,,,,,,
Morogoro,Kilosa,Mikumi,-7.40576,36.97596,Ally Kabanda,Stand Alone Agent,,12 hours,Yes,0,0,1,No,,No,No,,,,,,,,,,,,,,,,,,,,,,,,,,,,,,Yes,,,Yes,,,Yes,,,,,,,,,
Dodoma,Dodoma Urban,Kikuyu South,-6.19135,35.73713,Gleshars Innvestment,Conduct other business,CD&DVD Library,12 hours,,,,,,,,,Yes,5,0,1,Yes,Training from other rep,No,Yes,,,,,,,,,,,,,Yes,,Yes,,,,,,,,,,Yes,Yes,Yes,Yes,,,,,,,,,
Dar es Salaam,Ilala,Pugu,-6.91449,39.12243,Ally Kikuni,Stand Alone Agent,,12 hours,Yes,0,0,1,No,,No,Yes,,,,,,,,,,,,,,,,,,,,,,,,,,,,,,,,,Yes,Yes,Yes,Yes,,,,,,,,,
Dar es Salaam,Temeke,Mtoni,-6.87411,39.27348,Ally Lugano,Stand Alone Agent,,12 hours,Yes,0,0,1,Yes,Formal classroom training,No,No,,,,,,,,,,,,,,,,,,,,,Yes,,Yes,,,,,,,,Yes,Duka,Yes,,,Yes,,,,,,,,,
Dar es Salaam,Temeke,Toangoma,-6.94934,39.28093,Gustavius Gastor,Conduct other business,CD&DVD Library,12 hours,Yes,0,0,1,Yes,Training from other rep,No,Yes,,,,,,,,,,,,,,,,,,,Yes,Yes,Yes,Yes,Yes,Yes,Yes,,,,Yes,,Yes,Hardware Shop,Yes,,,Yes,,,,,,,,,
Dar es Salaam,Temeke,Mtoni,-6.87032,39.2765,Hami B Libarary,Conduct other business,CD&DVD Library,12 hours,Yes,0,0,1,Yes,Training from other rep,No,Yes,,,,,,,,,,,,,,,,,,,,Yes,Yes,,Yes,,,,,,Yes,Yes,,,Yes,Yes,,Yes,,,,,,,,,
Dar es Salaam,Kinondoni,Kigogo,-6.81677,39.2529,Ally Mohamed,Stand Alone Agent,,12 hours,,,,,,,,,,,,,,,,,Yes,2,3,1,Yes,Training from other rep,No,Yes,,,,,Yes,Yes,Yes,,Yes,,,,,,,,,Yes,,Yes,,,,,,,,,
Dar es Salaam,Ilala,Pugu,-6.92139,39.12523,Hamis,Conduct other business,CD&DVD Library,12 hours,,,,,,,,,Yes,0,0,1,Yes,Training from other rep,No,Yes,,,,,,,,,,,,,Yes,,Yes,,,,,,,,Yes,Duka,Yes,,,Yes,,,,,,,,,
Dar es Salaam,Ilala,Segerea,-6.8381,39.19401,Happiness Joseph,Conduct other business,CD&DVD Library,12 hours,,,,,,,,,Yes,0,0,1,Yes,Training from other rep,Yes,Yes,,,,,,,,,,,,,,,,,,,,,Yes,,,,Yes,Yes,Yes,Yes,,,,,,,,,
Dar es Salaam,Kinondoni,Kimara,-6.79069,39.16726,Happy Maruti,Conduct other business,CD&DVD Library,12 hours,,,,,,,,,Yes,5,10,1,Yes,Training from other rep,No,Yes,,,,,,,,,,,,Yes,Yes,Yes,,,,,,,,,,,,Yes,Yes,Yes,,,,,,,,,
Dar es Salaam,Kinondoni,Magomeni,-6.81027,39.25905,Haris,Conduct other business,CD&DVD Library,12 hours,Yes,7,15,1,Yes,Training from other rep,No,Yes,,,,,,,,,,,,,,,,,,,,Yes,Yes,Yes,Yes,,Yes,,,,,,,,,Yes,,Yes,,,,,,,,,
Dar es Salaam,Temeke,Mtoni,-6.87782,39.27206,Hasare Mahamud Kilauku,Conduct other business,CD&DVD Library,12 hours,,,,,,,,,Yes,0,0,1,Yes,Formal classroom training,No,No,,,,,,,,,,,,,Yes,,,,,,,,,,Yes,Duka,Yes,,,Yes,,,,,,,,,
Dar es Salaam,Ilala,Ukonga,-6.90711,39.14281,Hassa Issa Bariki,Conduct other business,CD&DVD Library,12 hours,Yes,0,0,1,Yes,Formal classroom training,No,Yes,,,,,,,,,,,,,,,,,,,,,,,,,,,,,,,Yes,Duka,Yes,Yes,Yes,Yes,,,,,,,,,
Dar es Salaam,Kinondoni,Tandale,-6.79367,39.24211,Hassan Libraly,Conduct other business,CD&DVD Library,12 hours,Yes,20,20,1,Yes,Training from other rep,Yes,Yes,,,,,,,,,,,,,,,,,,,,,,,,,,,,,,,,,,,,Yes,,,,,,,,,
Dar es Salaam,Ilala,Buguruni,-6.83619,39.24957,Ally Saleh Ally,Stand Alone Agent,,12 hours,Yes,0,0,1,Yes,Training from other rep,No,No,,,,,,,,,,,,,,,,,,,,,,Yes,,,,,,,,,Yes,Duka,Yes,,,Yes,,,,,,,,,
Dar es Salaam,Temeke,Kigamboni,-6.82652,39.3066,Henry Chande,Conduct other business,CD&DVD Library,12 hours,Yes,0,0,1,Yes,Formal classroom training,No,Yes,,,,,,,,,,,,,,,,,,,,,Yes,,,,,,,,Yes,Yes,,,Yes,,,Yes,,,,,,,,,
Dar es Salaam,Kinondoni,Kibamba,-6.78795,39.07813,Ally Salumu,Stand Alone Agent,,12 hours,Yes,40,40,1,No,,No,Yes,,,,,,,,,,,,,,,,,,,,,Yes,,,,,,,,,Yes,,,,,Yes,Yes,,,,,,,,,
Dar es Salaam,Kinondoni,Kimara,-6.78546,39.16887,Huseni Sudeshi,Conduct other business,CD&DVD Library,12 hours,,,,,,,,,Yes,20,30,1,Yes,Training from other rep,No,Yes,,,,,,,,,,,,Yes,Yes,Yes,,,,,,,,,,,,Yes,Yes,Yes,,,,,,,,,
Dar es Salaam,Ilala,Buguruni,-6.83939,39.23897,Ally Shaban,Stand Alone Agent,,12 hours,Yes,0,0,1,Yes,Formal classroom training,No,Yes,,,,,,,,,,,,,,,,,,,,,Yes,Yes,,,,,,,,Yes,Yes,Duka,Yes,,,Yes,,,,,,,,,
Dar es Salaam,Kinondoni,Sinza,-6.76903,39.22441,Ally Shop,Stand Alone Agent,,10 hours,Yes,0,0,1,Yes,Training from other rep,Yes,Yes,,,,,,,,,,,,,,,,,,,,,,,,Yes,,,,,,,,,Yes,,,Yes,,,,,,,,,
Dar es Salaam,Ilala,Kiwalani,-6.87622,39.17175,Hussein,Conduct other business,CD&DVD Library,12 hours,Yes,0,0,1,Yes,Training from other rep,No,Yes,,,,,,,,,,,,,,,,,,,,,,,,,,,,,,,Yes,Mobile Money Agent,Yes,Yes,Yes,Yes,,,,,,,,,
Tabora,Tabora Urban,Malolo,-5.02499,32.79824,Ally Shop,Stand Alone Agent,,12 hours,,,,,,,,,,,,,,,,,Yes,0,0,1,No,,No,No,,,,,,,Yes,,,,,,,,,,Yes,,,Yes,,,,,,,,,
Dar es Salaam,Kinondoni,Manzese,-6.79823,39.22828,Ib Library,Conduct other business,CD&DVD Library,12 hours,,,,,,,,,Yes,0,0,0,Yes,Training from other rep,Yes,Yes,,,,,,,,,,,,Yes,,,,,,,,,,,,,Yes,,,Yes,,,,,,,,,
Dar es Salaam,Temeke,Mbagala,-6.97258,39.21652,Ibrahim Ismail,Conduct other business,CD&DVD Library,12 hours,Yes,0,0,1,Yes,Formal classroom training,No,No,,,,,,,,,,,,,,,,,,,,,,,,,,,,,,,Yes,Duka,Yes,,,Yes,,,,,,,,,
Dar es Salaam,Kinondoni,Magomeni,-6.81433,39.2616,Ibrahim Store,Conduct other business,CD&DVD Library,12 hours,,,,,,,,,Yes,15,30,1,Yes,Training from other rep,No,Yes,,,,,,,,,,,,,Yes,Yes,,,Yes,,,,,,,,,Yes,,Yes,,,,,,,,,
Dar es Salaam,Kinondoni,Kimara,-6.78155,39.15476,Iddi Kaoneka,Conduct other business,CD&DVD Library,12 hours,,,,,,,,,Yes,5,10,1,Yes,Training from other rep,No,Yes,,,,,,,,,,,,Yes,Yes,Yes,,,,,,,,,,,,Yes,Yes,Yes,,,,,,,,,
Dar es Salaam,Temeke,Yombo Vituka,-6.87179,39.2266,Ismail Said Majengo,Conduct other business,CD&DVD Library,12 hours,,,,,,,,,,,,,,,,,Yes,0,0,1,Yes,Formal classroom training,No,No,,,,,,,,,,,,,,,Yes,Duka,Yes,,,Yes,,,,,,,,,
Dar es Salaam,Kinondoni,Kunduchi,-6.66878,39.18923,Alma Mshana,Stand Alone Agent,,12 hours,Yes,0,0,1,Yes,Training from other rep,No,Yes,,,,,,,,,,,,,,,,,,,,,Yes,,,,Yes,,,,,,,,Yes,Yes,,Yes,,,,,,,,,
Tabora,Tabora Urban,Isevya,-5.01661,32.82482,Jackline Shop,Conduct other business,CD&DVD Library,12 hours,,,,,,,,,Yes,0,0,1,Yes,Training from other rep,Yes,Yes,,,,,,,,,,,,,Yes,,,,,,,,,,,,Yes,Yes,Yes,Yes,,,,,,,,,
Dar es Salaam,Temeke,Kigamboni,-6.83556,39.31985,Almas Msangi,Stand Alone Agent,,12 hours,,,,,,,,,Yes,0,0,0,Yes,Training from other rep,Yes,Yes,,,,,,,,,,Yes,,Yes,,Yes,,,,,,Yes,,,,,Yes,Yes,Yes,Yes,,,,,,,,,
Arusha,Arusha,Engutoto,-3.41354,36.72175,Joel Kamunga,Conduct other business,CD&DVD Library,10 hours,Yes,0,0,1,Yes,Formal classroom training,No,Yes,,,,,,,,,,,,,,,,,,Yes,Yes,,Yes,,Yes,,,,Yes,Yes,Yes,,,,Yes,,,Yes,,,,,,,,,
Dar es Salaam,Ilala,Ukonga,-6.88657,39.18286,John,Conduct other business,CD&DVD Library,12 hours,Yes,0,0,1,Yes,Training from other rep,No,Yes,,,,,,,,,,,,,,,,,,,,,Yes,,,,,,,,,,,,Yes,,,Yes,,,,,,,,,
Dar es Salaam,Ilala,Ukonga,-6.87129,39.18905,Alodia,Stand Alone Agent,,12 hours,,,,,,,,,Yes,0,0,1,Yes,Training from other rep,Yes,Yes,,,,,,,,,,,,,,,,Yes,,,,,,,Yes,Duka,Yes,,,Yes,,,,,,,,,
Dar es Salaam,Ilala,Buguruni,-6.84307,39.23269,Joyce Obed,Conduct other business,CD&DVD Library,12 hours,Yes,0,0,1,Yes,Training from other rep,Yes,Yes,,,,,,,,,,,,,,,,,,,,,,,,,,,,,,,Yes,Duka,Yes,Yes,Yes,Yes,,,,,,,,,
Dar es Salaam,Temeke,Kurasini,-6.85022,39.2884,Julius John,Conduct other business,CD&DVD Library,12 hours,Yes,0,0,1,Yes,Training from other rep,No,Yes,,,,,,,,,,,,,,,,,,,,Yes,Yes,,,,,,,,Yes,Yes,,,Yes,Yes,,Yes,,,,,,,,,
Mwanza,Nyamagana,Nyamagana,-2.51922,32.89841,Aloyce Mwiga,Stand Alone Agent,,12 hours,,,,,,,,,Yes,0,0,1,Yes,Training from other rep,Yes,Yes,,,,,,,,,Yes,,,,,,,,,,,,,,,,Yes,,,,,,,,,,,,
Dar es Salaam,Temeke,Mtoni,-6.87461,39.27101,Julius Rite,Conduct other business,CD&DVD Library,12 hours,Yes,0,0,1,Yes,Training from other rep,No,No,,,,,,,,,,,,,,,,,,,,Yes,Yes,Yes,,,,,Yes,,,,,,Yes,,,Yes,,,,,,,,,
Dar es Salaam,Kinondoni,Kibamba,-6.78805,39.05549,Aloys Shop,Stand Alone Agent,,12 hours,Yes,0,0,0,Yes,Formal classroom training,Yes,Yes,,,,,,,,,,,,,,,,,,,,,,,,,,,,,,,,,Yes,Yes,,Yes,,,,,,,,,
Dar es Salaam,Ilala,Segerea,-6.80134,39.21264,Alphatel Store 22,Stand Alone Agent,,12 hours,Yes,0,0,1,Yes,Training from other rep,Yes,Yes,,,,,,,,,,,,,,,,,,,,,,,,,,,,,,Yes,,,Yes,,,Yes,,,,,,,,,
Tabora,Tabora Urban,Tumbi,-5.01687,32.83069,Juma Karim Shop,Conduct other business,CD&DVD Library,12 hours,,,,,,,,,Yes,0,0,1,Yes,Training from other rep,No,Yes,,,,,,,,,,,,,,,,,,,,,,,Yes,Duka,Yes,Yes,,Yes,,,,,,,,,
Dar es Salaam,Ilala,Ukonga,-6.88213,39.15798,Juma Mlama,Conduct other business,CD&DVD Library,12 hours,Yes,10,15,1,Yes,Training from other rep,No,Yes,,,,,,,,,,,,,,,,,,,,,,,,Yes,,,,,,,Yes,Photo Studio,Yes,Yes,Yes,,,,,,,,,,
Dar es Salaam,Ilala,Ukonga,-6.87932,39.16099,Jumanne Ally,Conduct other business,CD&DVD Library,12 hours,Yes,0,0,1,Yes,Training from other rep,No,Yes,,,,,,,,,,,,,,,,,,,,,,,,,,,,,,Yes,,,Yes,,,Yes,,,,,,,,,
Dar es Salaam,Kinondoni,Kawe,-6.74158,39.23591,Justin Shop,Conduct other business,CD&DVD Library,12 hours,,,,,,,,,Yes,60,20,1,Yes,Training from other rep,Yes,Yes,,,,,,,,,,,,,,,,,,,,,,,,,Yes,Yes,,Yes,,,,,,,,,
Dar es Salaam,Temeke,Mbagala,-6.88968,39.26957,Karimu Mwagala,Conduct other business,CD&DVD Library,12 hours,,,,,,,,,Yes,0,0,1,Yes,Training from other rep,No,Yes,,,,,,,,,,,,,Yes,,,,,,,Yes,,Yes,,,Yes,Yes,,Yes,,,,,,,,,
Dar es Salaam,Ilala,Kariakoo,-6.81368,39.27513,Altaf,Stand Alone Agent,,12 hours,Yes,0,0,0,Yes,Training from other rep,Yes,Yes,,,,,,,,,,,,,,,,,,Yes,,Yes,,,Yes,,,,,,,,Yes,Duka,Yes,,,Yes,,,,,,,,,
Dar es Salaam,Kinondoni,Magomeni,-6.81002,39.2562,Altaphar Mohamedi,Stand Alone Agent,,12 hours,Yes,20,20,1,No,,No,Yes,,,,,,,,,,,,,,,,,,,,Yes,Yes,,,,,,,,,,,,,Yes,Yes,Yes,,,,,,,,,
Arusha,Arusha,Kaloleni,-3.36516,36.68768,Kelvin Shayo,Conduct other business,CD&DVD Library,10 hours,,,,,,,,,Yes,5,6,1,Yes,Training from other rep,Yes,Yes,,,,,,,,,,Yes,,Yes,Yes,Yes,,,Yes,,,,Yes,Yes,,,Yes,,,Yes,,,,,,,,,
Dar es Salaam,Ilala,Tabata,-6.82102,39.21115,Alvis Travis,Stand Alone Agent,,12 hours,Yes,0,0,1,Yes,Formal classroom training,No,Yes,,,,,,,,,,,,,,,,,,,,,,,,,,,,,,,,,Yes,Yes,Yes,Yes,,,,,,,,,
Dar es Salaam,Ilala,Kariakoo,-6.8213,39.27313,Aly Makamba,Stand Alone Agent,,12 hours,,,,,,,,,Yes,0,0,0,Yes,Training from other rep,Yes,Yes,,,,,,,,,,Yes,,,Yes,,,Yes,,,Yes,,Yes,,,,Yes,,,Yes,,,,,,,,,
Dar es Salaam,Kinondoni,Kijitonyama,-6.77451,39.23421,Kilimanjaro Shop,Conduct other business,CD&DVD Library,12 hours,,,,,,,,,Yes,20,5,1,Yes,Training from other rep,No,Yes,,,,,,,,,,,,Yes,,,Yes,,,,,,,,,,,Yes,,Yes,,,,,,,,,
Dar es Salaam,Ilala,Segerea,-6.8357,39.19444,Am Fermacy,Stand Alone Agent,,12 hours,Yes,0,0,1,Yes,Formal classroom training,Yes,Yes,,,,,,,,,,,,,,,,,,,,Yes,,,,,,,,,,,,,Yes,,,Yes,,,,,,,,,
Dar es Salaam,Kinondoni,Kijitonyama,-6.77863,39.24641,Am Light,Stand Alone Agent,,12 hours,,,,,,,,,,,,,,,,,Yes,7,12,1,Yes,Formal classroom training,No,Yes,,,,,,,,Yes,,,,,,,,,,Yes,,Yes,,,,,,,,,
Dar es Salaam,Kinondoni,Kinondoni,-6.79637,39.26571,Am Shop,Stand Alone Agent,,12 hours,Yes,0,0,1,Yes,Training from other rep,Yes,Yes,,,,,,,,,,,,,,,,,,,,Yes,,,,,,,,,,,,,,,,Yes,,,,,,,,,
Dar es Salaam,Temeke,Charambe,-6.89862,39.23941,Kwangaya,Conduct other business,CD&DVD Library,12 hours,Yes,0,0,1,Yes,Training from other rep,No,No,,,,,,,,,,,,,,,,,,,,Yes,Yes,Yes,Yes,Yes,,,,,,,Yes,Lodge,Yes,,,Yes,,,,,,,,,
Dar es Salaam,Kinondoni,Manzese,-6.80161,39.23171,Lita Liberary Shop,Conduct other business,CD&DVD Library,12 hours,Yes,0,0,0,Yes,Formal classroom training,Yes,Yes,,,,,,,,,,,,,,,,,,,,,Yes,,,,,,,,,,,,Yes,,Yes,Yes,,,,,,,,,
Dar es Salaam,Kinondoni,Magomeni,-6.81005,39.25127,Amanda,Stand Alone Agent,,12 hours,,,,,,,,,Yes,0,0,1,No,,No,No,,,,,,,,,,,,,,,,,,,,,,,,,Yes,Yes,Yes,Yes,,,Yes,,Yes,No,No,No,
Dar es Salaam,Kinondoni,Kimara,-6.79529,39.14671,Amanda Shop,Stand Alone Agent,,12 hours,,,,,,,,,Yes,20,20,1,No,,Yes,Yes,,,,,,,,,,,,,,Yes,,,,,,,,,,,,,Yes,Yes,,,,,,,,,
Dar es Salaam,Kinondoni,Mburahati,-6.8163,39.23948,Mama Mudi,Conduct other business,CD&DVD Library,12 hours,,,,,,,,,Yes,2,2,1,Yes,Training from other rep,Yes,Yes,,,,,,,,,,,,,Yes,Yes,,,,,,,,,,,,Yes,,Yes,,,,,,,,,
Dar es Salaam,Temeke,Chang'ombe,-6.84615,39.27049,Amani Imani Hostel,Stand Alone Agent,,12 hours,,,,,,,,,Yes,0,0,1,Yes,Training from other rep,No,Yes,,,,,,,,,,,,Yes,Yes,,,,,,,,Yes,Yes,,,Yes,,Yes,Yes,,,,,,,,,
Dar es Salaam,Kinondoni,Kimara,-6.80534,39.15077,Mama Wande,Conduct other business,CD&DVD Library,12 hours,,,,,,,,,Yes,20,30,1,Yes,Training from other rep,No,Yes,,,,,,,,,,,,Yes,Yes,,,,Yes,,,,,,,,,Yes,,Yes,,,,,,,,,
Tabora,Tabora Urban,Ipuli,-5.01674,32.82479,Mamsela Shop,Conduct other business,CD&DVD Library,12 hours,,,,,,,,,Yes,0,0,1,Yes,Training from other rep,No,No,,,,,,,,,,,,,,,Yes,,,,,,,,,,Yes,Yes,,Yes,,,,,,,,,
Dar es Salaam,Kinondoni,Kimara,-6.79703,39.18448,Mapambano Shop,Conduct other business,CD&DVD Library,12 hours,,,,,,,,,,,,,,,,,Yes,5,10,1,Yes,Training from other rep,No,Yes,,,,Yes,Yes,Yes,,,,,,,,,,,,Yes,,Yes,,,,,,,,,
Pwani,Bagamoyo,Dunda,-6.44307,38.90352,Mariam Seif Shop,Conduct other business,CD&DVD Library,12 hours,Yes,0,0,1,Yes,Training from other rep,No,Yes,,,,,,,,,,,,,,,,,,,,Yes,Yes,,Yes,,,,,,Yes,Yes,,,Yes,Yes,,Yes,,,,,,,,,
Kilimanjaro,Mwanga,Kifula,-3.63343,37.66989,Amani Stationary,Stand Alone Agent,,12 hours,Yes,0,0,0,Yes,Training from other rep,Yes,Yes,,,,,,,,,,,,,,,,,,Yes,,,Yes,,Yes,Yes,,,,,,,,,Yes,,,Yes,,,,,,,,,
Mwanza,Ilemela,Nyakato,-2.5318,32.952,Marium Mpesa Shop,Conduct other business,CD&DVD Library,12 hours,,,,,,,,,Yes,10,10,1,Yes,Training from other rep,Yes,Yes,,,,,,,,,,,,Yes,Yes,,Yes,Yes,,,Yes,,Yes,,,,,Yes,Yes,Yes,,,,,,,,,
Dodoma,Dodoma Urban,Dodoma Makulu,-6.16414,35.79599,Martin Sempoll,Conduct other business,CD&DVD Library,12 hours,,,,,,,,,Yes,12,10,1,Yes,Training from other rep,No,Yes,,,,,,,,,,,,,,,Yes,,,,,,,,,,Yes,Yes,Yes,Yes,,,,,,,,,
Dar es Salaam,Temeke,Toangoma,-6.95316,39.28386,Matiku Turejee Eden,Conduct other business,CD&DVD Library,12 hours,Yes,0,0,1,Yes,Training from other rep,No,Yes,,,,,,,,,,,,,,,,,,,Yes,Yes,Yes,Yes,Yes,,,,,,,,Yes,Hardware Shop,Yes,,,Yes,,,,,,,,,
Dar es Salaam,Kinondoni,Mwananyamala,-6.78767,39.24999,Matilo,Conduct other business,CD&DVD Library,12 hours,,,,,,,,,,,,,,,,,Yes,0,0,1,Yes,Formal classroom training,No,Yes,,,,,,,,,Yes,,,,,,,,,,,Yes,,,,,,,,,
Dar es Salaam,Temeke,Kigamboni,-6.82361,39.30892,Maymah Fady,Conduct other business,CD&DVD Library,12 hours,,,,,,,,,Yes,0,0,1,Yes,Formal classroom training,No,Yes,,,,,,,,,,,,,,,,,,,,,,,Yes,Furniture sales,Yes,,,Yes,,,,,,,,,
Dar es Salaam,Kinondoni,Mabibo,-6.80174,39.21489,Ambros Shop,Stand Alone Agent,,12 hours,,,,,,,,,Yes,0,0,0,Yes,Formal classroom training,Yes,Yes,,,,,,,,,,,,,,,,,,,,,Yes,,,,Yes,,,Yes,,,,,,,,,
Dar es Salaam,Kinondoni,Mbezi,-6.70678,39.19795,AmbweneLtd,Stand Alone Agent,,12 hours,Yes,0,0,1,Yes,Training from other rep,Yes,Yes,,,,,,,,,,,,,,,,,,Yes,,,,,Yes,,,,,,,,,,Yes,Yes,Yes,Yes,,,,,,,,,
Mbeya,Mbozi,Tunduma,-9.2961,32.76402,Ambwene Shop,Stand Alone Agent,,12 hours,,,,,,,,,Yes,12,12,0,Yes,Training from other rep,No,No,,,,,,,,,,,,,,,,,,,,,,,,,,,,Yes,,,Yes,,No,No,No,No,
Dar es Salaam,Temeke,Mtoni,-6.89628,39.28117,Maynarde Shoo,Conduct other business,CD&DVD Library,12 hours,Yes,0,0,1,Yes,Training from other rep,No,Yes,,,,,,,,,,,,,,,,,,,,Yes,Yes,Yes,Yes,Yes,,,,,,,Yes,Market,Yes,,,Yes,,,,,,,,,
Dar es Salaam,Kinondoni,Kinondoni,-6.79059,39.26748,Michili Shop,Conduct other business,CD&DVD Library,12 hours,Yes,0,0,1,Yes,Training from other rep,No,Yes,,,,,,,,,,,,,,,,,,,,Yes,,,,,,,,,,,,,,Yes,,Yes,,,,,,,,,
Dar es Salaam,Ilala,Buguruni,-6.8431,39.23279,Mjaka,Conduct other business,CD&DVD Library,12 hours,,,,,,,,,,,,,,,,,,,,,,,,,,,,Yes,,,,,,,,,,,Yes,Market,Yes,Yes,,Yes,,,,,,,,,
Dar es Salaam,Ilala,Kitunda,-6.90728,39.2004,Mohamed Mbwana,Conduct other business,CD&DVD Library,12 hours,,,,,,,,,,,,,,,,,Yes,0,0,1,Yes,Formal classroom training,No,Yes,,,,,,,,,,,,,,,Yes,Duka,Yes,,,Yes,,,,,,,,,
Dar es Salaam,Ilala,Ukonga,-6.888,39.17033,Motomoto Com,Conduct other business,CD&DVD Library,12 hours,,,,,,,,,,,,,,,,,Yes,0,0,1,Yes,Formal classroom training,No,No,,,,,,,,,,,,,,,Yes,Duka,Yes,,,Yes,,,,,,,,,
Tabora,Tabora Urban,Chemchem,-5.01818,32.80179,Muhozya,Conduct other business,CD&DVD Library,12 hours,,,,,,,,,,,,,,,,,Yes,0,0,1,Yes,Training from other rep,No,No,,,,,,Yes,,,,,,,,,,,Yes,,,Yes,,,,,,,,,
Dar es Salaam,Temeke,Mtoni,-6.86818,39.27551,Amina,Stand Alone Agent,,12 hours,Yes,20,25,1,Yes,Formal classroom training,Yes,Yes,,,,,,,,,,,,,,,,,,,,,,,,,,,,,,,,,,,,Yes,,,Yes,,No,Yes,No,No,
Pwani,Kibaha,Kibaha,-6.73912,38.8705,Amina,Stand Alone Agent,,12 hours,,,,,,,,,Yes,0,0,1,Yes,Training from other rep,No,No,,,,,,,,,,,,,,,,,,,,,,,,,Yes,Yes,Yes,Yes,,,Yes,,Yes,No,No,No,
Dar es Salaam,Temeke,Yombo Vituka,-6.88587,39.25868,Mwinyi,Conduct other business,CD&DVD Library,12 hours,,,,,,,,,Yes,0,0,1,Yes,Training from other rep,No,Yes,,,,,,,,,,,,,,,,,,,,,,Yes,,,Yes,,,Yes,,,,,,,,,
Iringa,Njombe,Makambako,-8.84573,34.82416,Amina Issa Nassor,Stand Alone Agent,,12 hours,,,,,,,,,,,,,,,,,Yes,0,0,0,Yes,Training from other rep,No,No,,,,,,,,,,,,,,,Yes,Duka,Yes,,,Yes,,,,,,,,,
Dar es Salaam,Temeke,Mtoni,-6.86586,39.27456,Mwita Makori,Conduct other business,CD&DVD Library,12 hours,,,,,,,,,Yes,0,0,1,Yes,Training from other rep,No,Yes,,,,,,,,,,,,Yes,Yes,Yes,Yes,,,,,,Yes,Yes,,,Yes,,,Yes,,,,,,,,,
Dar es Salaam,Ilala,Tabata,-6.8249,39.23391,Amina Mbalahami,Stand Alone Agent,,12 hours,,,,,,,,,Yes,5,15,1,Yes,Training from other rep,No,Yes,,,,,,,,,,,,Yes,Yes,Yes,Yes,,,,,,Yes,,,,,Yes,,Yes,,,,,,,,,
Arusha,Arusha,Ngarenaro,-3.37056,36.67548,Amina Msemo,Stand Alone Agent,,10 hours,,,,,,,,,Yes,0,0,1,Yes,Training from other rep,Yes,Yes,,,,,,,,,,,,Yes,Yes,,,Yes,,,,,,Yes,,,Yes,,,Yes,,,,,,,,,
Dar es Salaam,Kinondoni,Ubungo,-6.80069,39.20531,Nadia Library,Conduct other business,CD&DVD Library,12 hours,Yes,0,0,0,Yes,Formal classroom training,Yes,Yes,,,,,,,,,,,,,,,,,,,,,,,,,,,,,,,,,Yes,,,Yes,,,,,,,,,
Dar es Salaam,Ilala,Buguruni,-6.84222,39.23524,Amina Said,Stand Alone Agent,,12 hours,,,,,,,,,Yes,0,0,1,Yes,Training from other rep,No,Yes,,,,,,,,,,,,,,,,,,,,,,,,,Yes,Yes,Yes,Yes,,,,,,,,,
Arusha,Arusha,Kimandolu,-3.36898,36.71221,Namisiye Stationery,Conduct other business,CD&DVD Library,12 hours,,,,,,,,,,,,,,,,,Yes,60,0,0,Yes,Training from other rep,Yes,Yes,,,,,,,,,,,,,,,Yes,Duka,Yes,,,Yes,,,,,,,,,
Mbeya,Ileje,Isongole,-9.47904,33.18336,Nzenzi Com,Conduct other business,CD&DVD Library,12 hours,,,,,,,,,Yes,1,2,0,Yes,Training from other rep,Yes,Yes,,,,,,,,,,,Yes,,Yes,Yes,,,,,,,,,,,,,,Yes,,,,,,,,,
Arusha,Arusha,Elerai,-3.37077,36.66552,Omar Hamis,Conduct other business,CD&DVD Library,10 hours,,,,,,,,,Yes,0,0,1,Yes,Formal classroom training,Yes,Yes,,,,,,,,,,Yes,Yes,,Yes,,Yes,,Yes,,,Yes,Yes,,,,Yes,,,Yes,,,,,,,,,
Dar es Salaam,Temeke,Mtoni,-6.8682,39.27549,Amina Shop,Stand Alone Agent,,12 hours,Yes,2,4,1,Yes,Training from other rep,No,Yes,,,,,,,,,,,,,,,,,,,Yes,Yes,Yes,Yes,Yes,Yes,,,Yes,,Yes,Yes,,,Yes,,,Yes,,,,,,,,,
Dar es Salaam,Kinondoni,Kimara,-6.78644,39.16649,Peace Nation Library,Conduct other business,CD&DVD Library,12 hours,Yes,0,0,0,Yes,Training from other rep,Yes,Yes,,,,,,,,,,,,,,,,,,,,,,,,,,,,,,Yes,,,Yes,,,,,,,,,,,,
Morogoro,Morogoro Urban,Kihonda,-6.77376,37.64093,Ramadhan Khalid,Conduct other business,CD&DVD Library,12 hours,,,,,,,,,Yes,0,9,1,No,,No,No,,,,,,,,,,,,,Yes,,,,,,,,,,,,Yes,,,Yes,,,,,,,,,
Dar es Salaam,Kinondoni,Mabibo,-6.80841,39.21986,Ramadhani Fashion,Conduct other business,CD&DVD Library,12 hours,Yes,0,0,0,Yes,Formal classroom training,Yes,Yes,,,,,,,,,,,,,,,,,,,,,,,,,,,,,,,,,Yes,,,Yes,,,,,,,,,
Dar es Salaam,Temeke,Temeke,-6.85325,39.25213,Ramadhani Issa,Conduct other business,CD&DVD Library,12 hours,,,,,,,,,,,,,,,,,Yes,0,0,1,Yes,Training from other rep,No,No,,,,,,,Yes,Yes,,,,,,,,,Yes,,,Yes,,,,,,,,,
Dar es Salaam,Kinondoni,Kigogo,-6.81314,39.22601,Aminatha Mbosi,Stand Alone Agent,,12 hours,Yes,20,20,1,No,,Yes,Yes,,,,,,,,,,,,,,,,,,,,,Yes,,,,,,,,,,,,,,Yes,Yes,,,,,,,,,
Mbeya,Mbeya Urban,Ruanda,-8.91283,33.46496,Roshilda General Traders,Conduct other business,CD&DVD Library,12 hours,,,,,,,,,Yes,8,8,1,Yes,Training from other rep,No,Yes,,,,,,,,,,,,,Yes,,,,,,,,,Yes,,,Yes,,,Yes,,,,,,,,,
Kigoma,Kigoma Urban,Mwanga,-4.88754,29.64092,Amir Ndenge Mabuyu,Stand Alone Agent,,12 hours,,,,,,,,,Yes,56,0,0,Yes,Training from other rep,Yes,Yes,,,,,,,,,,,,,,,Yes,,,,,,,,,,,,Yes,,,,,,,,,,
Dar es Salaam,Temeke,Charambe,-6.89558,39.24065,Said Ally,Conduct other business,CD&DVD Library,12 hours,Yes,0,0,1,Yes,Formal classroom training,No,No,,,,,,,,,,,,,,,,,Yes,,,,Yes,,,,,,,,,,Yes,Hardware Shop,Yes,,,Yes,,,,,,,,,
Dar es Salaam,Ilala,Buguruni,-6.83134,39.25239,Said Charles Lyanda,Conduct other business,CD&DVD Library,12 hours,Yes,0,0,1,Yes,Formal classroom training,No,Yes,,,,,,,,,,,,,,,,,,,,,Yes,Yes,Yes,,,,,,,,,,Yes,,,Yes,,,,,,,,,
Dar es Salaam,Ilala,Ukonga,-6.88107,39.16511,Salim Investment,Conduct other business,CD&DVD Library,12 hours,Yes,0,0,1,Yes,Training from other rep,No,Yes,,,,,,,,,,,,,,,,,,,,,,,,,Yes,,,,,,,,Yes,,,Yes,,,,,,,,,
Arusha,Arusha,Elerai,-3.3733,36.66931,Salum Game,Conduct other business,CD&DVD Library,12 hours,,,,,,,,,Yes,0,0,1,Yes,Formal classroom training,No,Yes,,,,,,,,,,Yes,Yes,,Yes,,Yes,,Yes,,Yes,,Yes,,,,Yes,,,Yes,,,,,,,,,
Dar es Salaam,Temeke,Azimio,-6.87298,39.26389,Salum Shabani,Conduct other business,CD&DVD Library,12 hours,,,,,,,,,Yes,0,0,1,Yes,Training from other rep,No,No,,,,,,,,,,,,Yes,,Yes,,,,,,,,,,,Yes,,,Yes,,,,,,,,,
Dar es Salaam,Ilala,Jangwani,-6.81763,39.26118,Seleman Mohamed,Conduct other business,CD&DVD Library,12 hours,,,,,,,,,Yes,3,5,1,Yes,Training from other rep,No,Yes,,,,,,,,,,,,,Yes,Yes,Yes,,Yes,,,,,,,,,Yes,,Yes,,,,,,,,,
Arusha,Arusha,Kati,-3.37315,36.68934,Amol Mobile City,Stand Alone Agent,,12 hours,,,,,,,,,Yes,54,0,1,Yes,Formal classroom training,Yes,Yes,,,,,,,,,Yes,Yes,Yes,,,Yes,,,,,,Yes,,,,,Yes,Yes,,Yes,,,,,,,,,
Dar es Salaam,Kinondoni,Magomeni,-6.80181,39.26478,Shaban Shop,Conduct other business,CD&DVD Library,12 hours,,,,,,,,,Yes,12,26,1,Yes,Training from other rep,No,Yes,,,,,,,,,,,,,,,,,Yes,,,,,,,,Yes,,,Yes,,,,,,,,,
Dar es Salaam,Kinondoni,Ubungo,-6.80399,39.21072,Amond,Stand Alone Agent,,12 hours,,,,,,,,,Yes,0,0,1,Yes,Training from other rep,No,No,,,,,,,,,,,,,,,,,,,,,,,,,Yes,Yes,Yes,Yes,,,Yes,,Yes,No,No,No,
Pwani,Bagamoyo,Chalinze,-6.63682,38.35256,Shabani,Conduct other business,CD&DVD Library,12 hours,,,,,,,,,Yes,0,0,0,No,,No,No,,,,,,,,,,,,,,,,,,,,,,,,,Yes,Yes,,Yes,,,,,,,,,
Tanga,Tanga,Maweni,-5.09812,39.04199,Amos Cash Point,Stand Alone Agent,,12 hours,,,,,,,,,Yes,0,0,0,Yes,Formal classroom training,No,Yes,,,,,,,,,,,,,Yes,Yes,,,Yes,,,Yes,,,,,Yes,,,Yes,,,,,,,,,
Dar es Salaam,Kinondoni,Mbezi,-6.77687,39.13022,Shabani Mbega,Conduct other business,CD&DVD Library,12 hours,,,,,,,,,Yes,10,10,1,Yes,Training from other rep,No,No,,,,,,,,,,,,,Yes,Yes,,,,,,,,,,,,Yes,,Yes,,,,,,,,,
Dar es Salaam,Temeke,Miburani,-6.84967,39.25934,Siza Abdalah Chenje,Conduct other business,CD&DVD Library,12 hours,,,,,,,,,Yes,0,0,1,Yes,Formal classroom training,Yes,No,,,,,,,,,,,,,Yes,Yes,Yes,,,,,,,,,,Yes,,,Yes,,,,,,,,,
Dar es Salaam,Ilala,Kitunda,-6.89502,39.19422,An Shop,Stand Alone Agent,,12 hours,,,,,,,,,Yes,2,30,6,Yes,Training from other rep,Yes,Yes,,,,,,,,,,Yes,,,,,,Yes,,,,,,,,,Yes,,,Yes,,,,,,,,,
Dar es Salaam,Temeke,Mbagala,-6.90491,39.28526,Suleiman Omary,Conduct other business,CD&DVD Library,12 hours,Yes,0,0,1,Yes,Training from other rep,Yes,Yes,,,,,,,,,Yes,0,0,1,Yes,Training from other rep,No,Yes,,,Yes,Yes,Yes,Yes,Yes,Yes,,,,,,,Yes,Butcher,Yes,,,Yes,,,,,,,,,
Dar es Salaam,Temeke,Mbagala,-6.91084,39.24827,Anania Shop,Stand Alone Agent,,12 hours,Yes,0,0,0,Yes,Training from other rep,Yes,Yes,,,,,,,,,,,,,,,,,,Yes,,,,Yes,,,,,,,Yes,,,,Yes,Yes,Yes,Yes,,,,,,,,,
Dar es Salaam,Temeke,Keko,-6.84242,39.27983,Tanzania Video Library Agent,Conduct other business,CD&DVD Library,12 hours,Yes,0,0,1,Yes,Training from other rep,No,Yes,,,,,,,,,,,,,,,,,,,,Yes,Yes,,Yes,,,,,,Yes,Yes,,,Yes,,,Yes,,,,,,,,,
Shinyanga,Kahama,Nyihogo,-3.83397,32.57943,Tawfiq Shop,Conduct other business,CD&DVD Library,12 hours,,,,,,,,,Yes,0,0,0,Yes,Training from other rep,No,Yes,,,,,,,,,,,,,,,,,,,,,,Yes,,,Yes,,,Yes,,,,,,,,,
Dodoma,Dodoma Urban,Kiwanja cha Ndege,-6.16225,35.7496,Venance Kotta,Conduct other business,CD&DVD Library,12 hours,,,,,,,,,Yes,12,15,1,Yes,Training from other rep,Yes,Yes,,,,,,,,,,,,Yes,Yes,Yes,Yes,,,,,,,,,,Yes,Yes,Yes,Yes,,,,,,,,,
Dar es Salaam,Ilala,Tabata,-6.83509,39.2155,Vitus Charles Mwaya,Conduct other business,CD&DVD Library,12 hours,Yes,0,0,1,Yes,Training from other rep,No,No,,,,,,,,,,,,,,,,,,,,,,,,,,,,,,,Yes,Duka,Yes,Yes,Yes,Yes,,,,,,,,,
Dar es Salaam,Ilala,Segerea,-6.8334,39.21851,Anastazia G Nyere,Stand Alone Agent,,12 hours,Yes,0,0,1,No,,Yes,Yes,,,,,,,,,,,,,,,,,,,,,Yes,,,,,,,,,,,,Yes,,,Yes,,,,,,,,,
Kilimanjaro,Moshi Rural,Makuyuni,-3.3876,37.5476,Anatoly Mosha,Stand Alone Agent,,12 hours,,,,,,,,,Yes,13,12,1,Yes,Training from other rep,Yes,Yes,,,,,,,,,,,Yes,,,,Yes,,,,Yes,,,,,,Yes,,Yes,Yes,,,,,,,,,
Dar es Salaam,Kinondoni,Kimara,-6.79809,39.1654,Andason Hamis,Stand Alone Agent,,12 hours,,,,,,,,,Yes,5,5,1,Yes,Training from other rep,No,Yes,,,,,,,,,,,,,Yes,Yes,,,,,,,,,,,,Yes,,Yes,,,,,,,,,
Dar es Salaam,Temeke,Mbagala,-6.92978,39.27236,Anderson Mbaga,Stand Alone Agent,,12 hours,,,,,,,,,Yes,0,0,1,Yes,Training from other rep,No,Yes,,,,,,,,,,,Yes,Yes,Yes,Yes,Yes,Yes,,,,,,,Yes,Petrol Station,Yes,,,Yes,,,,,,,,,
Dar es Salaam,Temeke,Azimio,-6.87419,39.26435,Zawadi Karimu,Conduct other business,CD&DVD Library,12 hours,,,,,,,,,,,,,,,,,Yes,0,0,1,Yes,Training from other rep,No,No,,,,,,Yes,Yes,,Yes,,,,,,,,Yes,,,Yes,,,,,,,,,
Dar es Salaam,Temeke,Mbagala,-6.92067,39.25376,Zedy Video Library,Conduct other business,CD&DVD Library,12 hours,Yes,0,0,0,Yes,Training from other rep,Yes,Yes,,,,,,,,,,,,,,,,,,Yes,,,,,,,,,,,,,,,Yes,Yes,Yes,Yes,,,,,,,,,
Dar es Salaam,Kinondoni,Mbezi,-6.78377,39.11966,Andrew Kiosk,Stand Alone Agent,,12 hours,Yes,32,32,1,Yes,Formal classroom training,No,Yes,,,,,,,,,,,,,,,,,,,,,,,Yes,Yes,,,,,Yes,,,,,Yes,Yes,Yes,,,,,,,,,
Dar es Salaam,Kinondoni,Magomeni,-6.80411,39.2608,Andrew Paschal,Stand Alone Agent,,12 hours,Yes,20,25,1,Yes,Training from other rep,Yes,No,,,,,,,,,,,,,,,,,,,,,,,,,,,,,,,,,,,,Yes,,,Yes,,No,Yes,No,No,
Shinyanga,Kahama,Kahama Mjini,-3.82835,32.59681,Andrew Shop,Stand Alone Agent,,12 hours,Yes,0,0,0,Yes,Training from other rep,No,Yes,,,,,,,,,,,,,,,,,Yes,,,Yes,Yes,Yes,Yes,Yes,Yes,,Yes,Yes,,Yes,,,Yes,,,Yes,,,,,,,,,
Dar es Salaam,Ilala,Ukonga,-6.87984,39.16205,Abdallah,Conduct other business,Cellphone and Accessories,12 hours,Yes,0,0,1,Yes,Training from other rep,No,Yes,,,,,,,,,,,,,,,,,,,,,,,,,,,,,,,Yes,Duka,Yes,,,Yes,,,,,,,,,
Dar es Salaam,Temeke,Temeke,-6.85606,39.25573,Abdallah A Baabad,Conduct other business,Cellphone and Accessories,12 hours,Yes,0,0,1,Yes,Formal classroom training,No,Yes,,,,,,,,,,,,,,,,,,,,,,,,Yes,,,,,,,,,Yes,,,Yes,,,,,,,,,
Dar es Salaam,Temeke,Mbagala,-6.90496,39.28498,Abdallah Hamis Njechele,Conduct other business,Cellphone and Accessories,12 hours,,,,,,,,,Yes,0,0,1,Yes,Training from other rep,No,Yes,,,,,,,,,,,,Yes,Yes,Yes,Yes,Yes,Yes,,,,Yes,Yes,Yes,Hardware Shop,Yes,,,Yes,,,,,,,,,
Arusha,Arusha,Elerai,-3.36927,36.67115,Abdallah Issa,Conduct other business,Cellphone and Accessories,12 hours,,,,,,,,,Yes,15,0,0,Yes,Training from other rep,No,Yes,,,,,,,,,,,,,Yes,,,,,,,,,,,,Yes,,Yes,Yes,,,,,,,,,
Dar es Salaam,Kinondoni,Kimara,-6.80007,39.12414,Aneth Store,Stand Alone Agent,,12 hours,,,,,,,,,Yes,5,5,1,Yes,Formal classroom training,No,Yes,,,,,,,,,,,,,,Yes,Yes,,,,,,,Yes,,,,Yes,,Yes,,,,,,,,,
Dar es Salaam,Temeke,Mtoni,-6.89664,39.28279,Abdallah Mburulila,Conduct other business,Cellphone and Accessories,12 hours,Yes,0,0,1,Yes,Training from other rep,No,No,,,,,,,,,,,,,,,,,,,,Yes,Yes,Yes,Yes,Yes,,,,Yes,Yes,Yes,Yes,Tailoring Shop,Yes,,,Yes,,,,,,,,,
Dar es Salaam,Temeke,Yombo Vituka,-6.87809,39.24946,Abdulwahab Abdallah,Conduct other business,Cellphone and Accessories,12 hours,,,,,,,,,,,,,,,,,Yes,0,0,1,Yes,Training from other rep,Yes,Yes,,,,,Yes,,,,,,,,,,,,Yes,,,Yes,,,,,,,,,
Dar es Salaam,Temeke,Keko,-6.84344,39.27481,Angel Shop,Stand Alone Agent,,12 hours,Yes,0,0,1,Yes,Training from other rep,No,Yes,,,,,,,,,,,,,,,,,,,,Yes,Yes,,,,,,,,,,Yes,Duka,Yes,Yes,,Yes,,,,,,,,,
Dar es Salaam,Ilala,Kitunda,-6.90914,39.20018,Albinius Mshumbusho,Conduct other business,Cellphone and Accessories,12 hours,,,,,,,,,Yes,0,0,1,Yes,Formal classroom training,No,Yes,,,,,,,,,,,,,,,,,,,,,,,,,Yes,Yes,Yes,Yes,,,,,,,,,
Dar es Salaam,Temeke,Mbagala,-6.93134,39.25654,Angela Msulwa,Stand Alone Agent,,12 hours,Yes,0,0,1,Yes,Training from other rep,No,Yes,,,,,,,,,,,,,,,,,,,,Yes,Yes,Yes,Yes,,,,,,,,Yes,Tailoring Shop,Yes,,,Yes,,,,,,,,,
Dar es Salaam,Ilala,Ukonga,-6.87921,39.1642,Angela Mwangalu,Stand Alone Agent,,12 hours,,,,,,,,,,,,,,,,,Yes,0,0,1,No,,No,Yes,,,,,,,,,,,,,,,,,Yes,,,Yes,,,,,,,,,
Dar es Salaam,Ilala,Kariakoo,-6.8166,39.27546,Asha Matibango,Stand Alone Agent,,12 hours,,,,,,,,,Yes,0,0,1,Yes,Training from other rep,Yes,Yes,,,,,,,,,,,,Yes,Yes,Yes,Yes,Yes,Yes,,,,,,Yes,Hardware Shop,Yes,,,Yes,,,Yes,,No,No,No,No,Airtel Money
Dar es Salaam,Ilala,Kinyerezi,-6.8443,39.16152,Angelina Peter,Stand Alone Agent,,12 hours,,,,,,,,,Yes,0,0,1,Yes,Formal classroom training,No,Yes,,,,,,,,,,,,,,,,,,,,,,,,,Yes,Yes,Yes,Yes,,,,,,,,,
Dar es Salaam,Kinondoni,Kawe,-6.73868,39.22559,Angelina Yambi Shop,Stand Alone Agent,,12 hours,Yes,0,0,1,Yes,Training from other rep,No,Yes,,,,,,,,,,,,,,,,,,,,,,,,,,,,,,,Yes,Cosmetics Shop,Yes,Yes,,Yes,,,,,,,,,
Morogoro,Morogoro Urban,Kingo,-6.82613,37.66511,Aliraza Rashid,Conduct other business,Cellphone and Accessories,12 hours,Yes,0,0,1,No,,No,No,,,,,,,,,,,,,,,,,,,,,,,,,Yes,,,Yes,,,Yes,Petrol Station,Yes,,,Yes,,,,,,,,,
Dar es Salaam,Kinondoni,Ubungo,-6.79044,39.19546,Angovi Kiosk,Stand Alone Agent,,12 hours,,,,,,,,,,,,,,,,,Yes,26,26,1,No,,No,Yes,,,,,,,,Yes,,,,,,Yes,,,,Yes,Yes,Yes,,,,,,,,,
Dar es Salaam,Ilala,Segerea,-6.84412,39.19078,Anifa Ally,Stand Alone Agent,,12 hours,,,,,,,,,Yes,0,0,1,Yes,Training from other rep,Yes,Yes,,,,,,,,,Yes,Yes,Yes,,,,,,,,,,,,,,Yes,Yes,Yes,Yes,,,,,,,,,
Tabora,Nzega,Ndala,-4.77599,33.2403,Anija Shop,Stand Alone Agent,,12 hours,Yes,0,0,1,Yes,Training from other rep,No,Yes,,,,,,,,,,,,,,,,,,,,,,Yes,,,,,,,,,,,Yes,,Yes,Yes,,,,,,,,,
Dar es Salaam,Temeke,Mbagala,-6.92066,39.27018,Ally Ally,Conduct other business,Cellphone and Accessories,12 hours,Yes,0,0,1,Yes,Formal classroom training,No,Yes,,,,,,,,,,,,,,,,,,,,,,,Yes,,,,,,,,Yes,Jewlery Shop,Yes,,,Yes,,,,,,,,,
Lindi,Liwale,Liwale Mjini,-9.80354,37.92619,Ally Sefu,Conduct other business,Cellphone and Accessories,12 hours,,,,,,,,,,,,,,,,,Yes,0,0,0,Yes,Training from other rep,Yes,Yes,,,Yes,,,,,,Yes,,,,,,Yes,Bus Stand,Yes,,,Yes,,,,,,,,,
Dar es Salaam,Kinondoni,Kunduchi,-6.66876,39.1896,Amenye Shop,Conduct other business,Cellphone and Accessories,12 hours,,,,,,,,,Yes,0,0,1,Yes,Formal classroom training,No,Yes,,,,,,,,,,,,,,,,,,,,,,Yes,Yes,Duka,Yes,Yes,,Yes,,,,,,,,,
Dar es Salaam,Kinondoni,Kinondoni,-6.79718,39.268,Anitha Shop,Stand Alone Agent,,12 hours,Yes,20,15,1,Yes,Formal classroom training,Yes,Yes,,,,,,,,,,,,,,,,,,,,,,,,,,,Yes,,,,,,,,,Yes,,,Yes,,No,Yes,No,No,
Dar es Salaam,Kinondoni,Kunduchi,-6.66886,39.18965,Amenye Shop No 2,Conduct other business,Cellphone and Accessories,12 hours,,,,,,,,,Yes,0,0,1,Yes,Formal classroom training,No,Yes,,,,,,,,,,,,,,,,,,,,,,,,,Yes,Yes,,Yes,,,,,,,,,
Dar es Salaam,Ilala,Segerea,-6.82154,39.19915,Anjela,Stand Alone Agent,,12 hours,Yes,0,0,1,Yes,Training from other rep,Yes,Yes,,,,,,,,,,,,,,,,,,,,,,,,,,,,,Yes,,,,Yes,,,Yes,,,,,,,,,
Dar es Salaam,Temeke,Keko,-6.84212,39.28058,Asantielly Amani Moshi,Conduct other business,Cellphone and Accessories,12 hours,Yes,0,0,1,Yes,Training from other rep,No,Yes,,,,,,,,,,,,,,,,,,,,Yes,Yes,,Yes,,,,,,Yes,Yes,,,Yes,,,Yes,,,,,,,,,
Dar es Salaam,Temeke,Mbagala,-6.89947,39.2693,Athuman Zuberi,Conduct other business,Cellphone and Accessories,12 hours,,,,,,,,,Yes,0,0,1,Yes,Training from other rep,No,Yes,,,,,,,,,,,,,Yes,,,,Yes,,,,,,Yes,Stationary Shop,Yes,,,Yes,,,,,,,,,
Dar es Salaam,Kinondoni,Magomeni,-6.80392,39.26047,Azan,Conduct other business,Cellphone and Accessories,12 hours,Yes,6,18,1,Yes,Training from other rep,No,Yes,,,,,,,,,,,,,,,,,,,,Yes,,,,,,,,,,,,,,,,Yes,,,,,,,,,
Dar es Salaam,Temeke,Chamazi,-6.94803,39.2296,Beatus Stephano,Conduct other business,Cellphone and Accessories,12 hours,Yes,0,0,1,Yes,Training from other rep,No,Yes,,,,,,,,,,,,,,,,,,,,Yes,Yes,Yes,Yes,Yes,Yes,,,,,,Yes,School,Yes,,,Yes,,,,,,,,,
Dar es Salaam,Temeke,Mbagala,-6.95208,39.22648,Anna Alfred,Stand Alone Agent,,12 hours,Yes,0,0,1,Yes,Training from other rep,Yes,Yes,,,,,,,,,,,,,,,,,,,,,Yes,Yes,Yes,Yes,,,,,,,,,Yes,,,Yes,,,,,,,,,
Dar es Salaam,Kinondoni,Kijitonyama,-6.76584,39.22911,Betha Kanan,Conduct other business,Cellphone and Accessories,12 hours,Yes,0,0,1,Yes,Training from other rep,No,No,,,,,,,,,,,,,,,,,,Yes,,,Yes,,,,,,,Yes,,,,,Yes,,,Yes,,,,,,,,,
Dar es Salaam,Kinondoni,Bunju,-6.63349,39.15944,Anna L Kalomba,Stand Alone Agent,,10 hours,,,,,,,,,Yes,1,1,1,Yes,Training from other rep,Yes,Yes,,,,,,,,,,Yes,,Yes,Yes,,,,,,,,,,,,Yes,Yes,Yes,Yes,,,,,,,,,
Dar es Salaam,Ilala,Kiwalani,-6.85987,39.24076,Anna Mhagama,Stand Alone Agent,,12 hours,,,,,,,,,Yes,0,0,1,Yes,Training from other rep,No,Yes,,,,,,,,,,,,,,,,,,,,,,,Yes,Butcher,Yes,Yes,Yes,Yes,,,,,,,,,
Dar es Salaam,Ilala,Kisutu,-6.81702,39.28063,Anna Peter,Stand Alone Agent,,12 hours,,,,,,,,,Yes,0,0,0,Yes,Training from other rep,Yes,Yes,,,,,,,,,,Yes,,,,,,Yes,,Yes,,,Yes,,,,Yes,Yes,Yes,Yes,,,,,,,,,
Morogoro,Morogoro Urban,Sabasaba,-6.82261,37.65291,Big Phone Shop,Conduct other business,Cellphone and Accessories,12 hours,,,,,,,,,,,,,,,,,Yes,0,0,1,Yes,Training from other rep,No,Yes,,,Yes,,,,,,,,,,,,,,Yes,,,Yes,,,,,,,,,
Dar es Salaam,Temeke,Mbagala,-6.92465,39.26864,Black Mobile,Conduct other business,Cellphone and Accessories,12 hours,,,,,,,,,,,,,,,,,Yes,0,0,1,Yes,Formal classroom training,No,Yes,,,,,,Yes,Yes,,,,,,,,Yes,Duka,Yes,,Yes,Yes,,,,,,,,,
Dar es Salaam,Ilala,Kisutu,-6.81687,39.28077,Anna Shop,Stand Alone Agent,,12 hours,,,,,,,,,Yes,0,0,0,Yes,Training from other rep,Yes,Yes,,,,,,,,,,Yes,Yes,,,,,,,,,Yes,Yes,,,,Yes,Yes,Yes,Yes,,,,,,,,,
Dar es Salaam,Ilala,Buguruni,-6.84194,39.23638,Boniface Bisare,Conduct other business,Cellphone and Accessories,12 hours,,,,,,,,,Yes,0,0,1,Yes,Training from other rep,Yes,Yes,,,,,,,,,,,,,,,,,Yes,,,,,,Yes,Duka,Yes,Yes,,Yes,,,,,,,,,
Dar es Salaam,Ilala,Kisutu,-6.81733,39.2812,Anna Stationary,Stand Alone Agent,,12 hours,,,,,,,,,Yes,0,0,0,Yes,Training from other rep,Yes,Yes,,,,,,,,,,Yes,,,,,Yes,,Yes,Yes,,,,,,,Yes,Yes,Yes,Yes,,,Yes,,No,Yes,No,No,
Dar es Salaam,Kinondoni,Mbezi,-6.79251,39.14694,Anna Swai,Stand Alone Agent,,12 hours,Yes,5,10,1,Yes,Training from other rep,No,Yes,,,,,,,,,,,,,,,,,,,,Yes,Yes,Yes,,,,,,,,,,,,Yes,Yes,Yes,,,,,,,,,
Shinyanga,Kahama,Kahama Mjini,-3.83105,32.60861,Boniphace Shop,Conduct other business,Cellphone and Accessories,12 hours,,,,,,,,,,,,,,,,,Yes,0,0,0,Yes,Training from other rep,No,Yes,,,,,,,,,,,,,,Yes,Yes,Duka,Yes,,,Yes,,,,,,,,,
Dar es Salaam,Kinondoni,Kimara,-6.79266,39.14688,Anna Swai Shop,Stand Alone Agent,,12 hours,Yes,13,13,1,Yes,Formal classroom training,No,Yes,,,,,,,,,,,,,,,,,,,Yes,,Yes,,,,Yes,,,,,,,,,Yes,Yes,Yes,,,,,,,,,
Pwani,Bagamoyo,Magomeni,-6.44387,38.90538,Call Master,Conduct other business,Cellphone and Accessories,12 hours,,,,,,,,,Yes,0,0,1,Yes,Training from other rep,No,Yes,,,,,,,,,,,,Yes,Yes,Yes,Yes,,,,,,Yes,Yes,,,Yes,,,Yes,,,,,,,,,
Dar es Salaam,Kinondoni,Tandale,-6.78966,39.23133,Catherine,Conduct other business,Cellphone and Accessories,12 hours,,,,,,,,,,,,,,,,,Yes,12,20,1,No,,No,Yes,,,,,,,Yes,,,,,,,,,,,,,Yes,,,,,,,,,
Tabora,Tabora Urban,Kanyenye,-5.02116,32.80665,Annamery,Stand Alone Agent,,12 hours,,,,,,,,,Yes,0,0,1,Yes,Training from other rep,No,Yes,,,,,,,,,,,,,Yes,,,,,,,,,,,,Yes,Yes,,Yes,,,,,,,,,
Arusha,Arusha,Kati,-3.36955,36.68298,Centre Phone Arusha,Conduct other business,Cellphone and Accessories,12 hours,,,,,,,,,Yes,12,0,1,Yes,Formal classroom training,Yes,Yes,,,,,,,,,,,,,,Yes,Yes,Yes,Yes,,Yes,Yes,,,,,,,,,,,,,,,,,
Dar es Salaam,Kinondoni,Goba,-6.65796,39.18484,Anneth Maponde,Stand Alone Agent,,10 hours,,,,,,,,,Yes,0,0,1,Yes,Training from other rep,Yes,Yes,,,,,,,,,,Yes,,,Yes,,,,,,,,,Yes,,,Yes,,Yes,Yes,,,,,,,,,
Dar es Salaam,Ilala,Kariakoo,-6.82397,39.27319,Cholo Shop,Conduct other business,Cellphone and Accessories,12 hours,,,,,,,,,,,,,,,,,Yes,0,0,0,Yes,Formal classroom training,Yes,Yes,,,,,,,,,,,,,,,,,Yes,,,Yes,,,,,,,,,
Dar es Salaam,Ilala,Kariakoo,-6.81916,39.27646,Anosye,Stand Alone Agent,,12 hours,,,,,,,,,Yes,0,0,0,Yes,Training from other rep,Yes,Yes,,,,,,,,,,Yes,,Yes,,Yes,,Yes,,,,,,,,,Yes,,,Yes,,,,,,,,,
Dar es Salaam,Ilala,Ukonga,-6.88216,39.15798,Clement,Conduct other business,Cellphone and Accessories,12 hours,Yes,0,0,1,Yes,Training from other rep,No,Yes,,,,,,,,,,,,,,,,,,,,,,,,,,,,,,,Yes,Duka,Yes,,,Yes,,,,,,,,,
Dar es Salaam,Kinondoni,Mbezi,-6.72813,39.22032,Ansila Mini,Stand Alone Agent,,10 hours,,,,,,,,,Yes,0,0,0,Yes,Training from other rep,Yes,Yes,,,,,,,,,,Yes,,,,,,,,,,,Yes,,Yes,Duke,Yes,Yes,Yes,,,,,,,,,,
Tabora,Tabora Urban,Itetemia,-5.02873,32.80737,Ansila Shop,Stand Alone Agent,,12 hours,,,,,,,,,,,,,,,,,Yes,0,0,1,Yes,Training from other rep,No,Yes,,,,,,,,,,,,,,,Yes,Wholesale,Yes,,,Yes,,,,,,,,,
Dar es Salaam,Kinondoni,Hananasif,-6.79729,39.26815,Dastany Shop,Conduct other business,Cellphone and Accessories,12 hours,,,,,,,,,Yes,25,15,1,Yes,Formal classroom training,Yes,Yes,,,,,,,,,,,,,,,,,,,,,,,,,,,,Yes,,,,,,,,,
Kilimanjaro,Moshi Rural,Makuyuni,-3.38605,37.54729,Antelmo Exaud,Stand Alone Agent,,12 hours,Yes,5,4,1,Yes,Training from other rep,Yes,Yes,,,,,,,,,,,,,,,,,,,Yes,,,Yes,,,,,,,,,,,Yes,,Yes,Yes,,,,,,,,,
Dar es Salaam,Temeke,Mbagala,-6.92284,39.27937,David Mitema,Conduct other business,Cellphone and Accessories,10 hours,,,,,,,,,Yes,0,0,1,Yes,Training from other rep,No,Yes,,,,,,,,,,,,Yes,Yes,Yes,Yes,Yes,,,,,,,Yes,Market,Yes,,,Yes,,,,,,,,,
Dar es Salaam,Temeke,Mtoni,-6.89413,39.2783,David Mitemwa,Conduct other business,Cellphone and Accessories,12 hours,,,,,,,,,Yes,0,0,1,Yes,Training from other rep,No,Yes,,,,,,,,,,,,Yes,Yes,Yes,Yes,,Yes,,,,,,Yes,Market,Yes,,,Yes,,,,,,,,,
Dar es Salaam,Ilala,Ukonga,-6.88196,39.15681,Devotha Frenk,Conduct other business,Cellphone and Accessories,12 hours,,,,,,,,,Yes,0,0,1,Yes,Formal classroom training,No,Yes,,,,,,,,,,,,,,Yes,,,,,,,,,,,Yes,Yes,,Yes,,,,,,,,,
Mara,Musoma Urban,Mukendo,-1.49834,33.80912,Dickson Modest,Conduct other business,Cellphone and Accessories,12 hours,Yes,2,3,1,Yes,Training from other rep,No,Yes,Yes,3,5,1,Yes,Training from other rep,No,No,,,,,,,,,,,,,Yes,,,,,,,,Yes,,,,,Yes,,Yes,,,,,,,,,
Arusha,Arusha,Levolosi,-3.3747,36.67927,Dismas Kamili Tarimo,Conduct other business,Cellphone and Accessories,10 hours,,,,,,,,,Yes,0,0,1,No,,No,Yes,,,,,,,,,,Yes,Yes,Yes,Yes,,Yes,Yes,,,Yes,Yes,Yes,,,,Yes,,,Yes,,,,,,,,,
Dar es Salaam,Ilala,Ilala,-6.83123,39.25761,Doris Makingi,Conduct other business,Cellphone and Accessories,12 hours,Yes,0,0,1,Yes,Formal classroom training,No,No,,,,,,,,,,,,,,,,,,,,Yes,Yes,Yes,,,,,Yes,,,,,,Yes,,,Yes,,,,,,,,,
Dar es Salaam,Kinondoni,Ubungo,-6.81672,39.18103,Anton,Stand Alone Agent,,12 hours,,,,,,,,,Yes,0,0,1,Yes,Training from other rep,No,No,,,,,,,,,,,,,,,,,,,,,,,,,Yes,Yes,Yes,Yes,,,Yes,,Yes,No,No,No,
Dar es Salaam,Temeke,Kurasini,-6.84958,39.28816,Dorothia Shop,Conduct other business,Cellphone and Accessories,12 hours,Yes,0,0,1,Yes,Training from other rep,No,Yes,,,,,,,,,,,,,,,,,,,,Yes,Yes,,Yes,,,,,,Yes,Yes,,,Yes,,,Yes,,,,,,,,,
Dar es Salaam,Kinondoni,Ubungo,-6.78596,39.19662,Antpas Silayo,Stand Alone Agent,,12 hours,Yes,10,10,1,Yes,Training from other rep,No,Yes,,,,,,,,,,,,,,,,,,,,Yes,Yes,,,,,,,,,,,,,Yes,,Yes,,,,,,,,,
Dar es Salaam,Kinondoni,Kunduchi,-6.66784,39.18886,Dotto Shop No 2,Conduct other business,Cellphone and Accessories,12 hours,Yes,0,0,1,Yes,Training from other rep,No,Yes,,,,,,,,,,,,,,,,,,,,,,,,,,,,,,,Yes,Oryx Gas Agent,Yes,Yes,,Yes,,,,,,,,,
Kilimanjaro,Moshi Rural,Arusha Chini,-3.37285,37.33344,Anzirani Luku Point,Stand Alone Agent,,12 hours,,,,,,,,,Yes,0,0,0,Yes,Training from other rep,No,Yes,,,,,,,,,,Yes,,,Yes,,Yes,,,,,,Yes,,,,Yes,,,Yes,,,,,,,,,
